     3.04           OBSERVATION DATA    G                   RINEX VERSION / TYPE
sbf2rin-13.8.0                          20220215 104928 UTC PGM / RUN BY / DATE 
SEPT                                                        MARKER NAME         
Unknown                                                     MARKER NUMBER       
Unknown             Unknown                                 OBSERVER / AGENCY   
3058160             SEPT ALTUS NR3      1.3.1-r72611        REC # / TYPE / VERS 
Altus NR3           SEPALTUS_NR3    NONE                    ANT # / TYPE        
  3509446.3453   779081.1531  5250981.4165                  APPROX POSITION XYZ 
        0.0000        0.0000        0.0000                  ANTENNA: DELTA H/E/N
G   12 C1C L1C D1C S1C C2W L2W D2W S2W C2L L2L D2L S2L      SYS / # / OBS TYPES 
SEPTENTRIO RECEIVERS OUTPUT ALIGNED CARRIER PHASES.         COMMENT             
NO FURTHER PHASE SHIFT APPLIED IN THE RINEX ENCODER.        COMMENT             
G L1C                                                       SYS / PHASE SHIFT   
G L2W                                                       SYS / PHASE SHIFT   
G L2L  0.00000                                              SYS / PHASE SHIFT   
     1.000                                                  INTERVAL            
  2022     2    14    14    37   51.0000000     GPS         TIME OF FIRST OBS   
  2022     2    14    14    50   38.0000000     GPS         TIME OF LAST OBS    
    47                                                      # OF SATELLITES     
DBHZ                                                        SIGNAL STRENGTH UNIT
                                                            END OF HEADER       
> 2022 02 14 14 37 51.0000000  0 10
G02  22473667.751 7 118099923.39807      1111.602 7        45.219    22473665.369 5  92025903.19805       866.182 5        35.688
G06  23992891.505 6 126083489.24206     -1161.620 6        38.500    23992893.064 6  98246883.43906      -905.160 6        38.594    23992894.776 6  98246887.43106      -905.120 6        40.625
G12  21699814.096 7 114033291.73007     -1197.903 7        46.031    21699812.748 7  88857106.35207      -933.432 7        47.906    21699813.720 7  88857091.35107      -933.433 7        43.000
G20  25482450.614 6 133911180.43206      4430.611 6        38.500    25482452.567 2 104346382.88102      3452.433 2        15.219
G22  23136785.384 7 121584625.72507      -140.571 7        42.875    23136784.195 4  94741262.14304      -109.536 4        26.750
G24  25698075.805 6 135044294.67406     -2399.646 6        38.406    25698080.180 4 105229341.18804     -1869.848 4        29.344    25698080.182 5 105229347.18105     -1869.650 5        34.125
G25  19974900.360 8 104968808.39808      1042.885 8        48.781    19974901.751 8  81793880.98508       812.637 8        53.906    19974902.451 7  81793883.98907       812.625 7        47.938
G29  21276698.787 7 111809807.92707      3745.104 7        46.656    21276698.307 8  87124524.95408      2918.261 8        49.688    21276699.044 7  87124525.96307      2918.259 7        44.750
G31  21806269.359 7 114592717.97707      3376.808 7        46.844    21806267.592 6  89293022.60306      2631.272 6        38.563    21806268.283 7  89293022.60607      2631.313 7        44.031
G32  23901777.852 7 125604684.88907     -1324.042 7        43.219    23901780.567 4  97873792.94604     -1031.731 4        26.938    23901781.903 6  97873789.94306     -1031.615 6        38.031
> 2022 02 14 14 37 52.0000000  0 10
G02  22473456.333 7 118098812.57007      1110.892 7        45.344    22473453.991 5  92025037.61605       865.627 5        35.500
G06  23993112.473 6 126084651.40406     -1162.102 6        38.563    23993114.243 6  98247789.01806      -905.537 6        38.438    23993115.994 6  98247793.01606      -905.444 6        40.375
G12  21700042.144 7 114034490.27307     -1198.403 7        46.156    21700040.800 7  88858040.28107      -933.823 7        47.750    21700041.683 7  88858025.28407      -933.817 7        43.031
G20  25481607.531 6 133906750.39406      4430.298 6        38.594    25481609.568 2 104342930.90502      3452.189 2        15.469
G22  23136812.379 7 121584767.09407      -141.339 7        42.719    23136811.155 4  94741372.29604      -110.142 4        26.688
G24  25698532.302 6 135046694.52706     -2399.556 6        38.500    25698536.885 4 105231211.20104     -1869.779 4        29.344    25698537.264 5 105231217.19205     -1869.778 5        33.969
G25  19974702.075 8 104967766.26908      1042.216 8        48.906    19974703.439 8  81793068.93808       812.113 8        53.781    19974704.133 7  81793071.93907       812.120 7        47.844
G29  21275986.327 7 111806063.49307      3744.508 7        46.594    21275985.750 8  87121607.21208      2917.795 8        49.563    21275986.567 7  87121608.22207      2917.734 7        44.781
G31  21805627.106 7 114589341.91307      3376.108 7        46.938    21805625.140 6  89290391.90506      2630.729 6        38.438    21805625.772 7  89290391.90507      2630.782 7        44.031
G32  23902030.039 7 125606009.61207     -1324.509 7        43.313    23902032.663 4  97874825.20004     -1032.077 4        26.781    23902034.236 6  97874822.23006     -1032.273 6        38.156
> 2022 02 14 14 37 53.0000000  0 10
G02  22473245.047 7 118097702.13807      1109.715 7        45.563    22473242.680 5  92024172.34405       864.712 5        35.563
G06  23993333.416 6 126085813.84406     -1163.142 6        39.563    23993335.477 6  98248694.82206      -906.350 6        38.375    23993337.004 6  98248698.82506      -906.202 6        40.094
G12  21700270.267 7 114035688.94507     -1199.200 7        46.250    21700268.880 7  88858974.30907      -934.441 7        47.750    21700269.660 7  88858959.30507      -934.502 7        43.313
G20  25480764.242 6 133902320.30906      4429.625 6        38.813    25480766.520 2 104339478.89102      3451.640 2        15.469
G22  23136839.328 7 121584908.79207      -142.474 7        42.625    23136838.137 4  94741482.71504      -111.024 4        26.750
G24  25698988.700 6 135049094.12606     -2399.952 6        38.438    25698993.500 4 105233081.01504     -1870.097 4        29.438    25698994.384 5 105233087.04205     -1870.166 5        33.688
G25  19974503.800 8 104966724.47208      1041.172 8        49.125    19974505.189 8  81792257.14808       811.302 8        53.781    19974505.861 8  81792260.15208       811.270 8        48.000
G29  21275273.916 7 111802319.34807      3743.563 7        46.719    21275273.259 8  87118689.69808      2917.061 8        49.563    21275274.097 7  87118690.70407      2917.052 7        44.969
G31  21804984.727 7 114585966.19307      3375.067 7        47.219    21804982.769 6  89287761.47406      2629.919 6        38.469    21804983.343 7  89287761.48107      2629.907 7        44.063
G32  23902282.117 7 125607334.48207     -1325.440 7        43.625    23902284.796 4  97875857.56304     -1032.808 4        26.844    23902286.336 6  97875854.56706     -1032.844 6        38.688
> 2022 02 14 14 37 54.0000000  0 10
G02  22473033.932 7 118096592.29807      1109.076 7        45.281    22473031.480 5  92023307.53705       864.213 5        35.594
G06  23993554.451 6 126086976.73706     -1163.489 6        38.844    23993556.742 6  98249600.97206      -906.613 6        38.344    23993558.337 6  98249604.96406      -906.710 6        40.594
G12  21700498.467 7 114036887.93507     -1199.581 7        46.125    21700497.027 7  88859908.58407      -934.740 7        47.781    21700497.710 7  88859893.59007      -934.808 7        43.281
G20  25479921.122 6 133897890.36606      4429.360 6        38.844    25479923.516 2 104336027.00902      3451.443 2        15.281
G22  23136866.354 7 121585051.00607      -142.916 7        42.563    23136865.203 4  94741593.53204      -111.354 4        26.688
G24  25699445.293 6 135051493.68206     -2400.103 6        38.344    25699450.111 4 105234950.80004     -1870.212 4        29.375    25699450.624 5 105234956.82905     -1870.124 5        34.313
G25  19974305.748 8 104965683.20008      1040.533 8        49.094    19974307.038 8  81791445.76608       810.804 8        53.813    19974307.745 8  81791448.76808       810.845 8        48.031
G29  21274561.495 7 111798575.68707      3742.898 7        46.813    21274560.858 8  87115772.56008      2916.542 8        49.594    21274561.702 7  87115773.56607      2916.526 7        44.906
G31  21804342.628 7 114582591.01407      3374.411 7        47.281    21804340.488 6  89285131.46506      2629.406 6        38.500    21804341.086 7  89285131.46707      2629.392 7        44.094
G32  23902534.362 7 125608659.66607     -1325.785 7        43.500    23902536.946 4  97876890.17104     -1033.080 4        26.719    23902538.725 6  97876887.18906     -1033.119 6        38.375
> 2022 02 14 14 37 55.0000000  0 10
G02  22472822.814 7 118095483.06307      1108.462 7        45.563    22472820.393 5  92022443.19905       863.735 5        35.719
G06  23993776.121 6 126088140.10706     -1164.119 6        39.156    23993778.118 6  98250507.49406      -907.109 6        38.406    23993779.704 6  98250511.48206      -907.095 6        40.375
G12  21700726.697 7 114038087.27307     -1199.963 7        46.188    21700725.240 7  88860843.13307      -935.035 7        47.875    21700725.993 7  88860828.13207      -935.084 7        43.313
G20  25479078.340 6 133893460.58106      4429.141 6        38.344    25479080.588 2 104332575.22602      3451.269 2        15.281
G22  23136893.424 7 121585193.74207      -143.467 7        42.625    23136892.351 4  94741704.75004      -111.786 4        26.813
G24  25699901.970 6 135053893.21106     -2400.065 6        38.313    25699906.704 4 105236820.56404     -1870.180 4        29.531    25699907.593 5 105236826.55705     -1870.123 5        33.813
G25  19974107.773 8 104964642.47508      1039.893 8        49.125    19974108.999 8  81790634.81308       810.308 8        53.938    19974109.676 8  81790637.81308       810.335 8        48.000
G29  21273849.145 7 111794832.51707      3742.368 7        46.750    21273848.546 8  87112855.80408      2916.131 8        49.719    21273849.455 7  87112856.80507      2916.286 7        45.031
G31  21803700.556 7 114579216.40107      3373.902 7        47.094    21803698.318 6  89282501.89906      2629.015 6        38.625    21803699.008 7  89282501.89707      2629.016 7        44.094
G32  23902786.602 7 125609985.19207     -1326.285 7        43.250    23902789.159 4  97877923.05104     -1033.471 4        26.938    23902791.041 6  97877920.05106     -1033.519 6        38.594
> 2022 02 14 14 37 56.0000000  0 10
G02  22472611.876 7 118094374.34207      1108.820 7        45.406    22472609.408 5  92021579.25905       864.014 5        35.719
G06  23993997.605 6 126089303.83806     -1163.603 6        38.594    23993999.576 6  98251414.30006      -906.698 6        38.406    23994000.920 6  98251418.28106      -906.685 6        40.875
G12  21700954.915 7 114039286.83507     -1199.403 7        46.156    21700953.499 7  88861777.85807      -934.602 7        47.813    21700954.229 7  88861762.85207      -934.530 7        43.500
G20  25478235.421 6 133889030.83506      4430.081 6        38.188    25478237.567 2 104329123.45602      3452.040 2        15.219
G22  23136920.728 7 121585336.93207      -143.045 7        42.563    23136919.583 4  94741816.32404      -111.466 4        26.813
G24  25700358.627 6 135056292.57806     -2398.945 6        37.875    25700363.256 4 105238690.20004     -1869.306 4        29.469    25700364.321 5 105238696.22205     -1869.471 5        33.594
G25  19973909.754 8 104963602.18008      1040.377 8        49.063    19973911.045 8  81789824.19508       810.681 8        53.875    19973911.731 7  81789827.20007       810.695 7        47.906
G29  21273136.942 7 111791089.72207      3742.995 7        46.813    21273136.311 8  87109939.34208      2916.619 8        49.688    21273137.183 7  87109940.35207      2916.539 7        45.031
G31  21803058.532 7 114575842.22807      3374.292 7        47.219    21803056.238 6  89279872.67306      2629.316 6        38.563    21803057.008 7  89279872.68007      2629.344 7        44.094
G32  23903038.876 7 125611310.93707     -1325.558 7        43.313    23903041.363 4  97878956.09604     -1032.904 4        26.813    23903043.433 6  97878953.08906     -1032.842 6        38.750
> 2022 02 14 14 37 57.0000000  0 10
G02  22472400.979 7 118093266.59707      1107.375 7        45.563    22472398.612 5  92020716.08205       862.887 5        35.750
G06  23994218.913 6 126090468.41706     -1164.856 6        38.719    23994221.198 6  98252321.75906      -907.673 6        38.344    23994222.546 6  98252325.75406      -907.760 6        40.781
G12  21701183.183 7 114040487.10807     -1200.500 7        46.344    21701181.887 7  88862713.13407      -935.456 7        47.844    21701182.759 7  88862698.13007      -935.477 7        43.563
G20  25477392.647 6 133884601.65106      4429.062 6        38.219    25477394.751 2 104325672.14202      3451.222 2        14.938
G22  23136947.989 7 121585481.03407      -144.500 7        42.500    23136946.967 4  94741928.60604      -112.589 4        26.781
G24  25700815.252 6 135058692.31606     -2399.759 6        38.313    25700819.872 4 105240560.12604     -1869.942 4        29.438    25700820.697 5 105240566.13505     -1869.917 5        34.188
G25  19973711.987 8 104962562.81008      1038.987 8        48.906    19973713.256 8  81789014.29408       809.600 8        53.906    19973713.928 7  81789017.30207       809.601 7        47.906
G29  21272424.885 7 111787347.81507      3741.599 7        46.719    21272424.250 8  87107023.57008      2915.527 8        49.719    21272425.206 7  87107024.58307      2915.512 7        45.031
G31  21802416.600 7 114572469.00007      3372.898 7        47.313    21802414.337 6  89277244.18306      2628.230 6        38.625    21802415.081 7  89277244.19207      2628.296 7        44.188
G32  23903291.283 7 125612637.40807     -1326.684 7        43.313    23903293.741 4  97879989.70504     -1033.776 4        26.844    23903295.581 6  97879986.70806     -1033.781 6        38.969
> 2022 02 14 14 37 58.0000000  0 10
G02  22472190.292 7 118092159.41107      1106.604 7        45.531    22472187.913 5  92019853.33905       862.284 5        35.781
G06  23994440.519 6 126091633.39906     -1165.388 6        38.844    23994442.901 6  98253229.53406      -908.092 6        38.313    23994444.206 6  98253233.52606      -908.143 6        40.969
G12  21701411.567 7 114041687.66307     -1200.987 7        46.313    21701410.324 7  88863648.62907      -935.835 7        47.844    21701411.376 7  88863633.63507      -935.728 7        43.656
G20  25476549.833 6 133880172.54706      4428.893 6        37.813    25476551.953 2 104322220.90902      3451.056 2        15.406
G22  23136975.542 7 121585625.58907      -145.070 7        42.094    23136974.450 4  94742041.24204      -113.051 4        26.750
G24  25701271.458 6 135061091.95606     -2399.968 6        38.094    25701276.460 4 105242429.97104     -1870.102 4        29.469    25701277.278 5 105242435.98605     -1869.879 5        34.094
G25  19973514.258 8 104961523.91908      1038.417 8        48.875    19973515.566 8  81788204.76908       809.155 8        53.938    19973516.168 7  81788207.77507       809.123 7        47.781
G29  21271712.962 7 111783606.34907      3740.910 7        46.781    21271712.265 8  87104108.14208      2914.993 8        49.719    21271713.198 7  87104109.14007      2915.092 7        44.906
G31  21801774.695 7 114569096.27107      3372.144 7        47.188    21801772.529 6  89274616.08406      2627.644 6        38.656    21801773.270 7  89274616.08807      2627.706 7        43.969
G32  23903543.696 7 125613964.14907     -1327.130 7        43.188    23903546.187 4  97881023.52504     -1034.125 4        26.875    23903547.977 6  97881020.52506     -1034.139 6        38.594
> 2022 02 14 14 37 59.0000000  0 10
G02  22471979.567 7 118091052.63107      1107.049 7        45.719    22471977.313 5  92018990.91305       862.633 5        35.875
G06  23994662.260 6 126092798.67906     -1164.975 6        38.594    23994664.658 6  98254137.54506      -907.764 6        38.344    23994665.870 6  98254141.53606      -907.828 6        41.000
G12  21701640.046 7 114042888.36407     -1200.273 7        46.531    21701638.811 7  88864584.24207      -935.284 7        47.875    21701639.863 7  88864569.24707      -935.282 7        43.656
G20  25475706.815 6 133875743.42506      4429.516 6        38.219    25475709.164 2 104318769.63802      3451.588 2        15.375
G22  23137002.914 7 121585770.51907      -144.563 7        42.031    23137002.017 4  94742154.18104      -112.653 4        26.781
G24  25701728.067 6 135063491.36306     -2398.892 6        37.875    25701733.031 4 105244299.63604     -1869.268 4        29.594    25701733.706 5 105244305.64105     -1869.208 5        34.438
G25  19973316.611 8 104960485.40608      1038.741 8        48.750    19973317.947 8  81787395.53908       809.406 8        53.969    19973318.502 7  81787398.54207       809.429 7        47.719
G29  21271001.111 7 111779865.17507      3741.506 7        46.625    21271000.338 8  87101192.94208      2915.458 8        49.750    21271001.162 7  87101193.95507      2915.402 7        44.906
G31  21801132.869 7 114565723.90707      3372.630 7        47.375    21801130.789 6  89271988.26806      2628.023 6        38.656    21801131.566 7  89271988.26907      2628.091 7        43.875
G32  23903796.149 7 125615291.03307     -1326.464 7        42.969    23903798.646 4  97882057.45604     -1033.609 4        26.906    23903800.319 6  97882054.44506     -1033.393 6        38.219
> 2022 02 14 14 38  0.0000000  0 10
G02  22471769.140 7 118089946.34307      1106.080 7        45.563    22471766.794 5  92018128.87105       861.881 5        35.813
G06  23994883.835 6 126093964.28406     -1165.708 6        38.500    23994886.491 6  98255045.80806      -908.345 6        38.250    23994887.764 6  98255049.80106      -908.411 6        40.500
G12  21701868.567 7 114044089.29007     -1200.995 7        46.313    21701867.333 7  88865520.02707      -935.842 7        47.844    21701868.467 7  88865505.02907      -935.860 7        43.625
G20  25474863.940 6 133871314.33606      4429.177 6        38.250    25474866.316 2 104315318.41402      3451.269 2        15.656
G22  23137030.441 7 121585915.86307      -145.514 7        42.438    23137029.674 4  94742267.43804      -113.391 4        26.688
G24  25702184.735 6 135065890.62606     -2399.098 6        38.188    25702189.592 4 105246169.18904     -1869.428 4        29.563    25702190.269 5 105246175.17005     -1869.033 5        34.406
G25  19973118.976 8 104959447.29308      1037.970 8        48.844    19973120.399 8  81786586.61908       808.808 8        53.906    19973120.989 7  81786589.61907       808.830 7        47.719
G29  21270289.254 7 111776124.39407      3740.574 7        47.031    21270288.491 8  87098278.04908      2914.730 8        49.719    21270289.452 7  87098279.04907      2914.813 7        44.938
G31  21800491.162 7 114562351.97807      3371.718 7        47.563    21800489.124 6  89269360.79306      2627.311 6        38.625    21800489.826 7  89269360.80107      2627.265 7        43.906
G32  23904048.628 7 125616618.14507     -1327.184 7        43.094    23904051.163 4  97883091.57004     -1034.171 4        26.844    23904052.556 6  97883088.56006     -1034.015 6        38.281
> 2022 02 14 14 38  1.0000000  0 10
G02  22471558.751 7 118088840.69907      1106.384 7        45.625    22471556.422 5  92017267.33305       862.108 5        35.750
G06  23995105.759 6 126095130.41306     -1165.419 6        37.656    23995108.422 6  98255954.47706      -908.115 6        38.156    23995109.714 6  98255958.47806      -908.049 6        40.563
G12  21702097.136 7 114045290.59707     -1200.439 7        46.344    21702095.931 7  88866456.11107      -935.409 7        47.813    21702097.106 7  88866441.10207      -935.343 7        43.344
G20  25474020.938 6 133866885.46106      4429.743 6        38.625    25474023.523 2 104311867.34402      3451.724 2        15.844
G22  23137058.082 7 121586061.76507      -145.044 7        42.406    23137057.483 4  94742381.12904      -113.020 4        26.750
G24  25702641.600 6 135068289.86506     -2398.270 6        38.031    25702646.145 4 105248038.72804     -1868.788 4        29.469    25702646.599 5 105248044.74205     -1868.943 5        34.125
G25  19972921.482 8 104958409.77208      1038.240 8        48.906    19972922.968 8  81785778.16208       809.015 8        53.906    19972923.664 7  81785781.16507       809.029 7        47.688
G29  21269577.510 7 111772384.13707      3741.050 7        46.938    21269576.747 8  87095363.56408      2915.101 8        49.719    21269577.582 7  87095364.56507      2915.134 7        44.719
G31  21799849.533 7 114558980.65307      3372.070 7        47.563    21799847.581 6  89266733.78906      2627.583 6        38.625    21799848.055 7  89266733.78407      2627.673 7        43.688
G32  23904301.194 7 125617945.62307     -1326.725 7        43.188    23904303.751 4  97884125.96904     -1033.815 4        26.719    23904305.077 6  97884122.96606     -1033.819 6        38.094
> 2022 02 14 14 38  2.0000000  0 10
G02  22471348.543 7 118087736.20307      1104.026 7        45.688    22471346.247 5  92016406.68605       860.281 5        35.750
G06  23995327.768 6 126096297.52506     -1167.430 6        37.844    23995330.536 6  98256863.91406      -909.686 6        38.031    23995331.796 6  98256867.92306      -909.637 6        40.563
G12  21702325.867 7 114046492.75907     -1202.407 7        46.281    21702324.691 7  88867392.85807      -936.935 7        47.813    21702325.979 7  88867377.85407      -936.984 7        43.438
G20  25473178.127 6 133862457.24706      4428.015 6        38.813    25473180.837 2 104308416.77802      3450.417 2        15.750
G22  23137086.086 7 121586208.75007      -147.274 7        42.406    23137085.480 4  94742495.65704      -114.757 4        26.750
G24  25703098.041 6 135070689.59906     -2399.729 6        38.031    25703102.783 4 105249908.65004     -1869.918 4        29.563    25703103.094 5 105249914.66405     -1869.807 5        33.938
G25  19972724.210 8 104957373.32008      1036.120 8        48.781    19972725.738 8  81784970.53608       807.368 8        53.875    19972726.467 7  81784973.54507       807.370 7        47.625
G29  21268865.991 7 111768644.90407      3738.815 7        46.875    21268865.187 8  87092449.87708      2913.367 8        49.719    21268865.945 7  87092450.88007      2913.429 7        44.813
G31  21799208.120 7 114555610.39707      3369.871 7        47.594    21799206.234 6  89264107.61606      2625.878 6        38.625    21799206.498 7  89264107.61207      2625.918 7        43.688
G32  23904553.751 7 125619273.97907     -1328.709 7        43.188    23904556.519 4  97885161.04404     -1035.359 4        26.750    23904557.702 6  97885158.05306     -1035.471 6        38.094
> 2022 02 14 14 38  3.0000000  0 10
G02  22471138.449 7 118086632.64207      1103.566 7        45.781    22471136.246 5  92015546.76805       859.919 5        35.688
G06  23995550.226 6 126097465.47506     -1167.850 6        37.688    23995552.798 6  98257774.00206      -910.011 6        37.906    23995554.175 6  98257778.01006      -910.143 6        40.406
G12  21702554.665 7 114047695.61107     -1202.742 7        46.594    21702553.593 7  88868330.14207      -937.201 7        47.750    21702555.017 7  88868315.13707      -937.161 7        43.500
G20  25472335.608 6 133858029.54206      4427.916 6        38.813    25472338.200 2 104304966.63102      3450.307 2        15.938
G22  23137114.173 7 121586356.61707      -147.915 7        42.438    23137113.674 4  94742610.88204      -115.261 4        26.813
G24  25703554.758 6 135073089.63906     -2399.594 6        37.969    25703559.443 4 105251778.81004     -1869.813 4        29.531    25703559.631 5 105251784.83605     -1869.968 5        34.188
G25  19972527.160 8 104956337.75408      1035.528 8        49.000    19972528.683 8  81784163.60208       806.904 8        53.813    19972529.392 7  81784166.60207       806.945 7        47.719
G29  21268154.496 7 111764906.50107      3738.408 7        47.219    21268153.792 8  87089536.83508      2913.047 8        49.656    21268154.551 7  87089537.84107      2913.093 7        44.969
G31  21798566.903 7 114552241.04807      3369.374 7        47.688    21798565.061 6  89261482.14806      2625.485 6        38.563    21798565.219 7  89261482.15107      2625.500 7        43.719
G32  23904806.747 7 125620602.98907     -1328.884 7        43.000    23904809.451 4  97886196.63404     -1035.496 4        26.594    23904810.712 6  97886193.62906     -1035.525 6        38.094
> 2022 02 14 14 38  4.0000000  0 10
G02  22470928.393 7 118085529.16607      1103.290 7        45.750    22470926.267 5  92014686.91805       859.704 5        35.688
G06  23995772.645 6 126098633.30306     -1167.894 6        37.063    23995775.038 6  98258683.99806      -910.041 6        37.750    23995776.479 6  98258688.00706      -909.882 6        40.500
G12  21702783.626 7 114048898.26207     -1202.628 7        46.531    21702782.455 7  88869267.27407      -937.115 7        47.781    21702783.786 7  88869252.26807      -937.098 7        43.406
G20  25471492.963 6 133853601.48206      4428.074 6        38.969    25471495.621 2 104301516.20302      3450.435 2        15.938
G22  23137142.313 7 121586504.47107      -148.069 7        42.406    23137141.836 4  94742726.09504      -115.373 4        26.906
G24  25704011.508 6 135075489.11906     -2399.384 6        37.688    25704016.018 4 105253648.53104     -1869.647 4        29.469    25704015.947 5 105253654.54705     -1869.771 5        34.000
G25  19972330.067 8 104955302.19508      1035.399 8        48.969    19972331.627 8  81783356.67208       806.802 8        53.844    19972332.393 7  81783359.67407       806.868 7        47.625
G29  21267443.111 7 111761168.07107      3738.307 7        47.063    21267442.397 8  87086623.77308      2912.962 8        49.719    21267443.191 7  87086624.78507      2912.968 7        44.906
G31  21797925.726 7 114548871.72207      3369.184 7        47.844    21797923.897 6  89258856.70006      2625.335 6        38.563    21797924.116 7  89258856.71307      2625.327 7        43.625
G32  23905059.780 7 125621931.80907     -1328.868 7        42.719    23905062.322 4  97887232.07504     -1035.475 4        26.625    23905063.408 6  97887229.08506     -1035.518 6        38.000
> 2022 02 14 14 38  5.0000000  0 10
G02  22470718.449 7 118084426.35907      1102.151 7        46.000    22470716.401 5  92013827.58805       858.820 5        35.750
G06  23995995.002 6 126099801.71606     -1169.024 6        38.000    23995997.394 6  98259594.44606      -910.933 6        37.719    23995998.632 6  98259598.44206      -910.748 6        40.688
G12  21703012.648 7 114050101.31607     -1203.587 7        46.438    21703011.389 7  88870204.71807      -937.862 7        47.813    21703012.636 7  88870189.72207      -937.847 7        43.375
G20  25470650.467 6 133849173.60806      4427.609 6        38.719    25470652.988 2 104298065.89602      3450.102 2        15.500
G22  23137170.680 7 121586652.91707      -149.138 7        42.656    23137170.088 4  94742841.75904      -116.205 4        26.969
G24  25704468.080 6 135077888.62906     -2399.859 6        37.688    25704472.610 4 105255518.28104     -1870.017 4        29.344    25704472.779 5 105255524.29405     -1870.227 5        33.656
G25  19972133.135 8 104954267.24308      1034.343 8        49.063    19972134.688 8  81782550.21808       805.977 8        53.875    19972135.488 7  81782553.22307       805.964 7        47.500
G29  21266731.792 7 111757430.20007      3737.257 7        47.063    21266731.114 8  87083711.14808      2912.149 8        49.781    21266731.756 7  87083712.15607      2912.147 7        44.875
G31  21797284.729 7 114545503.01607      3368.082 7        47.531    21797282.850 6  89256231.73806      2624.474 6        38.594    21797283.062 7  89256231.75207      2624.492 7        43.531
G32  23905312.702 7 125623261.03607     -1329.733 7        42.781    23905315.246 4  97888267.83204     -1036.165 4        26.656    23905316.322 6  97888264.84106     -1036.226 6        38.250
> 2022 02 14 14 38  6.0000000  0 10
G02  22470508.810 7 118083324.43907      1101.410 7        46.000    22470506.726 5  92012968.95305       858.241 5        35.750
G06  23996217.416 6 126100970.86306     -1169.656 6        37.938    23996219.902 6  98260505.47506      -911.416 6        37.688    23996220.938 6  98260509.46306      -911.363 6        40.844
G12  21703241.714 7 114051305.00507     -1204.059 7        46.625    21703240.452 7  88871142.65707      -938.230 7        47.781    21703241.417 7  88871127.65307      -938.121 7        43.219
G20  25469808.058 6 133844746.19506      4427.166 6        38.656    25469810.485 2 104294615.95302      3449.733 2        15.219
G22  23137199.175 7 121586802.20007      -149.778 7        42.625    23137198.505 4  94742958.08004      -116.710 4        26.844
G24  25704924.644 6 135080288.36306     -2399.961 6        37.563    25704929.226 4 105257388.20704     -1870.100 4        29.156    25704929.537 5 105257394.19005     -1869.953 5        33.719
G25  19971936.350 8 104953233.12508      1033.626 8        49.000    19971937.901 8  81781744.41208       805.419 8        53.844    19971938.672 7  81781747.42107       805.401 7        47.500
G29  21266020.621 7 111753693.10107      3736.657 7        47.000    21266019.970 8  87080799.12408      2911.678 8        49.750    21266020.557 7  87080800.13607      2911.665 7        44.844
G31  21796643.858 7 114542135.16507      3367.346 7        47.313    21796641.959 6  89253607.43706      2623.904 6        38.500    21796642.184 7  89253607.44007      2623.977 7        43.563
G32  23905565.778 7 125624590.87607     -1330.281 7        42.938    23905568.299 4  97889304.07204     -1036.589 4        26.594    23905569.333 6  97889301.08006     -1036.565 6        38.000
> 2022 02 14 14 38  7.0000000  0 10
G02  22470299.248 7 118082223.17207      1099.931 7        46.000    22470297.182 5  92012110.81905       857.090 5        35.750
G06  23996440.146 6 126102140.49706     -1170.925 6        38.031    23996442.486 6  98261416.87606      -912.403 6        37.750    23996443.470 6  98261420.87206      -912.334 6        40.906
G12  21703470.949 7 114052509.05607     -1205.266 7        46.281    21703469.591 7  88872080.87707      -939.165 7        47.719    21703470.443 7  88872065.86807      -939.083 7        43.375
G20  25468965.952 6 133840318.99306      4426.029 6        38.063    25468968.009 2 104291166.19102      3448.855 2        15.313
G22  23137227.738 7 121586952.02007      -151.064 7        42.844    23137227.034 4  94743074.82104      -117.707 4        26.906
G24  25705381.137 6 135082688.08706     -2400.588 6        37.219    25705385.845 4 105259258.11604     -1870.572 4        29.219    25705386.165 5 105259264.13405     -1870.615 5        34.531
G25  19971739.718 8 104952199.56808      1032.275 8        48.969    19971741.221 8  81780939.04208       804.371 8        53.813    19971742.057 7  81780942.05207       804.342 7        47.563
G29  21265309.530 7 111749956.54807      3735.298 7        46.875    21265308.937 8  87077887.52308      2910.622 8        49.719    21265309.536 7  87077888.53107      2910.565 7        44.875
G31  21796003.133 7 114538767.90407      3365.979 7        47.375    21796001.189 6  89250983.59706      2622.841 6        38.469    21796001.538 7  89250983.60507      2622.812 7        43.563
G32  23905819.101 7 125625921.08407     -1331.424 7        42.031    23905821.451 4  97890340.60404     -1037.466 4        26.438    23905822.643 6  97890337.60106     -1037.491 6        38.000
> 2022 02 14 14 38  8.0000000  0 10
G02  22470089.828 7 118081122.36907      1101.069 7        45.875    22470087.704 5  92011253.05305       857.980 5        35.813
G06  23996662.489 6 126103310.47506     -1169.552 6        37.906    23996665.137 6  98262328.54106      -911.343 6        37.813    23996666.222 6  98262332.53806      -911.443 6        40.656
G12  21703700.122 7 114053713.29707     -1203.798 7        46.563    21703698.762 7  88873019.24807      -938.022 7        47.719    21703699.518 7  88873004.24607      -938.024 7        43.563
G20  25468123.426 6 133835891.78706      4427.901 6        38.406    25468125.502 2 104287716.41802      3450.309 2        15.313
G22  23137256.493 7 121587102.24707      -149.904 7        42.969    23137255.616 4  94743191.88204      -116.808 4        26.781
G24  25705837.741 6 135085087.65506     -2398.866 6        37.500    25705842.470 4 105261127.90604     -1869.239 4        29.156    25705842.700 5 105261133.92605     -1869.364 5        34.031
G25  19971543.188 8 104951166.43008      1033.496 8        48.938    19971544.622 8  81780134.00108       805.325 8        53.781    19971545.474 7  81780137.00507       805.329 7        47.563
G29  21264598.501 7 111746220.33407      3736.577 7        46.813    21264597.962 8  87074976.18808      2911.620 8        49.719    21264598.698 7  87074977.19707      2911.641 7        44.844
G31  21795362.460 7 114535401.04807      3367.152 7        47.344    21795360.504 6  89248360.07506      2623.750 6        38.469    21795360.938 7  89248360.07707      2623.801 7        43.531
G32  23906072.312 7 125627251.49607     -1329.881 7        42.313    23906074.630 4  97891377.28404     -1036.269 4        26.406    23906075.825 6  97891374.26606     -1036.204 6        38.188
> 2022 02 14 14 38  9.0000000  0 10
G02  22469880.393 7 118080022.18007      1100.039 7        45.906    22469878.356 5  92010395.76305       857.178 5        35.906
G06  23996884.986 6 126104480.91806     -1170.511 6        38.094    23996887.886 6  98263240.57606      -912.085 6        37.844    23996889.062 6  98263244.58506      -912.111 6        40.844
G12  21703929.304 7 114054917.89807     -1204.598 7        46.531    21703927.995 7  88873957.89607      -938.647 7        47.750    21703928.774 7  88873942.89707      -938.601 7        43.531
G20  25467280.900 6 133831464.75306      4427.125 6        38.625    25467283.066 2 104284266.79702      3449.730 2        15.281
G22  23137285.201 7 121587252.98107      -150.761 7        43.344    23137284.293 4  94743309.33504      -117.475 4        26.750
G24  25706294.326 6 135087487.18206     -2399.346 6        38.219    25706299.076 4 105262997.66104     -1869.607 4        29.125    25706299.446 5 105263003.69905     -1869.860 5        33.938
G25  19971346.766 8 104950133.83708      1032.494 8        49.188    19971348.125 8  81779329.38208       804.542 8        53.844    19971348.969 7  81779332.38507       804.545 7        47.594
G29  21263887.587 7 111742484.62207      3735.626 7        46.813    21263887.082 8  87072065.24508      2910.883 8        49.750    21263887.885 7  87072066.24507      2910.992 7        44.875
G31  21794721.875 7 114532034.77207      3366.157 7        47.438    21794719.922 6  89245737.00406      2622.984 6        38.563    21794720.368 7  89245737.00807      2622.996 7        43.594
G32  23906325.441 6 125628582.23906     -1330.760 6        41.844    23906327.871 4  97892414.22704     -1036.947 4        26.438    23906329.129 6  97892411.22606     -1036.946 6        37.969
> 2022 02 14 14 38 10.0000000  0 10
G02  22469671.196 7 118078922.93207      1099.315 7        45.688    22469669.173 5  92009539.20705       856.611 5        35.938
G06  23997107.957 6 126105652.16806     -1171.172 6        38.344    23997110.788 6  98264153.23806      -912.601 6        37.875    23997111.779 6  98264157.22706      -912.482 6        40.813
G12  21704158.618 7 114056123.15607     -1205.128 7        46.750    21704157.354 7  88874897.05607      -939.058 7        47.813    21704157.998 7  88874882.05507      -939.009 7        43.625
G20  25466438.269 6 133827038.20106      4426.816 6        38.281    25466440.747 2 104280817.52902      3449.479 2        15.031
G22  23137314.249 7 121587404.60407      -151.612 7        43.313    23137313.139 4  94743427.48404      -118.134 4        26.813
G24  25706751.178 6 135089887.00806     -2399.393 6        38.000    25706755.732 4 105264867.65204     -1869.656 4        29.250    25706755.940 5 105264873.69705     -1869.549 5        33.781
G25  19971150.524 8 104949102.12708      1031.721 8        49.094    19971151.799 8  81778525.44908       803.939 8        53.906    19971152.599 7  81778528.45507       803.980 7        47.750
G29  21263176.786 7 111738749.73607      3735.000 7        46.844    21263176.357 8  87069154.94608      2910.392 8        49.719    21263177.027 7  87069155.95407      2910.393 7        44.781
G31  21794081.493 7 114528669.37807      3365.483 7        47.375    21794079.514 6  89243114.62006      2622.452 6        38.563    21794080.134 7  89243114.62207      2622.429 7        43.500
G32  23906578.589 7 125629913.65307     -1331.178 7        42.031    23906581.233 4  97893451.68504     -1037.278 4        26.344    23906582.505 6  97893448.69406     -1037.469 6        37.625
> 2022 02 14 14 38 11.0000000  0 10
G02  22469462.150 7 118077824.16207      1099.203 7        45.750    22469460.085 5  92008683.02305       856.524 5        35.906
G06  23997331.085 6 126106823.78306     -1171.209 6        38.156    23997333.747 6  98265066.18206      -912.614 6        37.938    23997334.755 6  98265070.15206      -912.506 6        41.000
G12  21704388.099 7 114057328.62507     -1204.844 7        46.750    21704386.761 7  88875836.38507      -938.840 7        47.844    21704387.451 7  88875821.38007      -938.872 7        43.500
G20  25465595.988 6 133822611.69806      4427.014 6        38.344    25465598.449 2 104277368.30902      3449.628 2        14.781
G22  23137343.157 7 121587556.62907      -151.539 7        43.344    23137342.075 4  94743545.94204      -118.076 4        27.031
G24  25707208.230 6 135092286.69906     -2398.865 6        37.531    25707212.347 4 105266737.54004     -1869.238 4        29.313    25707212.788 5 105266743.56005     -1869.417 5        34.156
G25  19970954.329 8 104948070.82808      1031.802 8        49.094    19970955.557 8  81777721.84008       804.002 8        53.938    19970956.265 7  81777724.84407       804.054 7        47.688
G29  21262466.059 7 111735015.22507      3735.049 7        46.781    21262465.709 8  87066244.93708      2910.427 8        49.719    21262466.353 7  87066245.94407      2910.411 7        44.813
G31  21793441.088 7 114525304.42807      3365.416 7        47.344    21793439.173 6  89240492.58206      2622.403 6        38.531    21793439.882 7  89240492.58407      2622.417 7        43.563
G32  23906831.744 7 125631245.28507     -1331.021 7        42.281    23906834.649 4  97894489.31804     -1037.148 4        26.406    23906835.767 6  97894486.30206     -1037.078 6        37.844
> 2022 02 14 14 38 12.0000000  0 10
G02  22469252.995 7 118076725.57507      1098.800 7        45.875    22469251.023 6  92007826.97906       856.208 6        36.000
G06  23997554.039 6 126107995.41606     -1171.376 6        38.625    23997556.711 6  98265979.13306      -912.763 6        38.094    23997557.775 6  98265983.12106      -912.834 6        41.219
G12  21704617.391 7 114058534.01407     -1205.084 7        46.906    21704616.142 7  88876775.64707      -939.026 7        47.906    21704616.978 7  88876760.65207      -939.001 7        43.531
G20  25464753.737 6 133818184.91906      4427.166 6        38.313    25464756.067 2 104273918.87002      3449.747 2        14.750
G22  23137372.122 7 121587708.77807      -152.023 7        43.250    23137371.038 4  94743664.50004      -118.455 4        27.031
G24  25707665.050 6 135094685.90806     -2398.703 6        38.000    25707668.873 4 105268607.05104     -1869.116 4        29.313    25707669.363 5 105268613.07705     -1869.187 5        33.938
G25  19970758.174 8 104947039.66008      1031.414 8        48.969    19970759.338 8  81776918.33208       803.695 8        53.969    19970760.061 7  81776921.33807       803.703 7        47.563
G29  21261755.497 7 111731280.78507      3734.654 7        46.906    21261755.075 8  87063334.98608      2910.117 8        49.781    21261755.681 7  87063335.99207      2910.154 7        44.844
G31  21792800.569 7 114521939.60307      3365.012 7        47.594    21792798.864 6  89237870.64206      2622.086 6        38.594    21792799.526 7  89237870.64007      2622.083 7        43.500
G32  23907085.164 6 125632576.82506     -1331.333 6        41.969    23907087.976 4  97895526.87404     -1037.401 4        26.438    23907089.108 6  97895523.88306     -1037.485 6        37.313
> 2022 02 14 14 38 13.0000000  0 10
G02  22469043.882 7 118075627.66907      1096.914 7        46.125    22469042.113 6  92006971.46906       854.734 6        36.156
G06  23997777.075 6 126109167.59606     -1173.117 6        38.531    23997779.796 6  98266892.51906      -914.117 6        38.313    23997780.886 6  98266896.49706      -914.061 6        41.031
G12  21704846.960 7 114059739.81207     -1206.658 7        47.063    21704845.604 8  88877715.22908      -940.254 8        48.031    21704846.515 7  88877700.22407      -940.170 7        43.375
G20  25463911.437 6 133813758.37406      4425.815 6        38.813    25463913.748 2 104270469.60602      3448.690 2        14.750
G22  23137401.223 7 121587861.51307      -153.684 7        43.219    23137400.108 4  94743783.50904      -119.755 4        27.156
G24  25708121.716 6 135097085.13106     -2399.838 6        37.969    25708125.398 4 105270476.57404     -1870.004 4        29.438    25708126.256 5 105270482.59605     -1869.988 5        34.250
G25  19970562.043 8 104946009.08908      1029.573 8        49.219    19970563.235 9  81776115.29309       802.263 9        54.063    19970563.902 7  81776118.30307       802.262 7        47.500
G29  21261044.982 7 111727546.90207      3733.000 7        46.969    21261044.556 8  87060425.46808      2908.827 8        49.875    21261045.128 7  87060426.47707      2908.777 7        44.688
G31  21792160.413 7 114518575.39807      3363.319 7        47.531    21792158.684 6  89235249.18406      2620.769 6        38.656    21792159.294 7  89235249.19107      2620.719 7        43.531
G32  23907338.696 7 125633908.76507     -1332.855 7        42.063    23907341.414 4  97896564.75604     -1038.591 4        26.344    23907342.456 6  97896561.74306     -1038.568 6        37.188
> 2022 02 14 14 38 14.0000000  0 10
G02  22468835.010 7 118074529.92907      1097.875 7        45.906    22468833.222 6  92006116.08606       855.484 6        36.188
G06  23998000.484 6 126110339.78106     -1171.805 6        38.719    23998002.876 6  98267805.90506      -913.098 6        38.375    23998003.867 6  98267809.91406      -913.138 6        41.000
G12  21705076.433 7 114060945.51407     -1205.408 7        47.063    21705075.047 8  88878654.73708      -939.283 8        48.094    21705075.961 7  88878639.72907      -939.246 7        43.250
G20  25463069.174 6 133809331.56406      4427.221 6        39.125    25463071.298 2 104267020.13902      3449.772 2        15.125
G22  23137430.195 7 121588014.36307      -152.648 7        42.938    23137429.196 4  94743902.61304      -118.946 4        27.125
G24  25708577.926 6 135099483.90206     -2398.281 6        37.781    25708581.880 4 105272345.75104     -1868.796 4        29.438    25708582.050 5 105272351.77705     -1868.961 5        34.188
G25  19970366.012 8 104944978.64208      1030.685 8        49.063    19970367.150 9  81775312.34709       803.127 9        54.063    19970367.785 7  81775315.34807       803.159 7        47.500
G29  21260334.373 7 111723813.08207      3734.069 7        47.000    21260334.038 8  87057515.99708      2909.662 8        49.906    21260334.559 7  87057517.00907      2909.618 7        44.563
G31  21791520.206 7 114515211.32807      3364.297 7        47.313    21791518.522 6  89232627.83306      2621.530 6        38.656    21791519.355 7  89232627.84307      2621.461 7        43.406
G32  23907592.238 7 125635240.60507     -1331.473 7        42.031    23907594.807 4  97897602.54804     -1037.508 4        26.250    23907596.115 6  97897599.54606     -1037.601 6        37.125
> 2022 02 14 14 38 15.0000000  0 10
G02  22468626.294 7 118073432.74107      1097.203 7        46.094    22468624.433 6  92005261.13706       854.962 6        36.094
G06  23998223.649 6 126111512.40606     -1172.597 6        38.219    23998226.024 6  98268719.63906      -913.715 6        38.375    23998227.225 6  98268723.64406      -913.664 6        41.125
G12  21705305.948 7 114062151.49607     -1205.905 7        47.063    21705304.535 8  88879594.46308      -939.669 8        48.063    21705305.458 7  88879579.45707      -939.526 7        43.219
G20  25462226.832 6 133804904.85106      4426.877 6        39.125    25462228.925 2 104263570.74702      3449.543 2        15.125
G22  23137459.163 7 121588167.68507      -153.301 7        43.125    23137458.324 4  94744022.08704      -119.459 4        26.969
G24  25709034.562 6 135101882.58206     -2398.404 6        37.281    25709038.307 4 105274214.85204     -1868.883 4        29.281    25709038.649 5 105274220.87005     -1868.673 5        34.281
G25  19970169.993 8 104943948.68108      1029.970 8        49.219    19970171.163 9  81774509.78109       802.574 9        54.031    19970171.784 7  81774512.78307       802.580 7        47.531
G29  21259623.992 7 111720079.70607      3733.341 7        47.031    21259623.604 8  87054606.87508      2909.096 8        49.844    21259624.170 7  87054607.87807      2909.100 7        44.781
G31  21790880.051 7 114511847.76107      3363.517 7        47.344    21790878.449 6  89230006.87306      2620.924 6        38.656    21790879.264 7  89230006.87507      2620.934 7        43.531
G32  23907845.829 7 125636572.73807     -1332.096 7        42.094    23907848.290 4  97898640.57304     -1037.991 4        26.063    23907849.836 6  97898637.55306     -1037.833 6        37.344
> 2022 02 14 14 38 16.0000000  0 10
G02  22468417.786 7 118072336.16607      1096.412 7        46.063    22468415.760 6  92004406.66006       854.349 6        36.125
G06  23998446.804 6 126112685.48206     -1173.328 6        38.938    23998449.260 6  98269633.72806      -914.283 6        38.438    23998450.452 6  98269637.73406      -914.109 6        40.688
G12  21705535.500 7 114063357.81807     -1206.407 7        47.094    21705534.099 8  88880534.45308      -940.056 8        48.094    21705535.036 7  88880519.45607      -940.062 7        43.156
G20  25461384.271 6 133800478.31806      4426.413 6        39.281    25461386.610 2 104260121.49902      3449.157 2        15.125
G22  23137488.245 7 121588321.55307      -153.975 7        43.156    23137487.604 4  94744141.98304      -119.989 4        27.000
G24  25709490.964 6 135104281.21706     -2398.451 6        37.719    25709494.752 4 105276083.91204     -1868.924 4        29.344    25709495.519 5 105276089.92505     -1868.811 5        34.188
G25  19969974.024 8 104942919.26508      1029.197 8        49.188    19969975.275 9  81773707.63809       801.969 9        54.063    19969975.863 7  81773710.64607       801.950 7        47.594
G29  21258913.719 7 111716346.82407      3732.734 7        47.000    21258913.269 8  87051698.13408      2908.623 8        49.875    21258913.829 7  87051699.13607      2908.705 7        44.594
G31  21790240.112 7 114508484.75707      3362.815 7        47.469    21790238.488 6  89227386.35006      2620.375 6        38.656    21790239.268 7  89227386.35307      2620.363 7        43.438
G32  23908099.474 6 125637905.18806     -1332.600 6        41.719    23908101.809 4  97899678.84204     -1038.382 4        26.000    23908103.253 6  97899675.84806     -1038.481 6        37.313
> 2022 02 14 14 38 17.0000000  0 10
G02  22468209.435 7 118071240.65507      1094.764 7        46.094    22468207.293 6  92003553.01506       853.061 6        36.188
G06  23998670.514 6 126113859.51206     -1174.693 6        38.438    23998672.681 6  98270548.55206      -915.347 6        38.500    23998673.804 6  98270552.55306      -915.303 6        40.813
G12  21705765.155 7 114064564.93607     -1207.716 7        46.969    21705763.811 8  88881475.06608      -941.079 8        48.094    21705764.838 7  88881460.06007      -941.080 7        43.125
G20  25460541.978 6 133796052.37506      4425.445 6        39.125    25460544.344 2 104256672.72502      3448.396 2        15.375
G22  23137517.621 7 121588476.41907      -155.556 7        43.031    23137517.054 4  94744262.65804      -121.217 4        26.969
G24  25709947.415 6 135106680.29206     -2399.498 6        37.563    25709951.278 4 105277953.31904     -1869.734 4        29.375    25709952.240 5 105277959.34005     -1869.820 5        34.594
G25  19969778.376 8 104941890.84208      1027.814 8        49.188    19969779.570 9  81772906.26809       800.895 9        54.063    19969780.186 7  81772909.27807       800.853 7        47.594
G29  21258203.559 7 111712614.89407      3731.203 7        46.781    21258203.108 8  87048790.13808      2907.430 8        49.875    21258203.738 7  87048791.14007      2907.444 7        44.594
G31  21789600.254 7 114505122.76107      3361.267 7        47.281    21789598.725 6  89224766.61206      2619.172 6        38.625    21789599.520 7  89224766.61207      2619.204 7        43.500
G32  23908352.969 7 125639238.43007     -1333.832 7        42.125    23908355.515 4  97900717.73004     -1039.346 4        25.875    23908357.071 6  97900714.74906     -1039.473 6        37.844
> 2022 02 14 14 38 18.0000000  0 10
G02  22468001.197 7 118070145.81507      1094.333 7        45.938    22467998.933 6  92002699.89506       852.729 6        36.188
G06  23998893.786 6 126115034.05406     -1174.939 6        38.750    23998896.186 6  98271463.77906      -915.540 6        38.625    23998897.347 6  98271467.78106      -915.587 6        41.094
G12  21705994.940 7 114065772.44607     -1207.869 7        47.156    21705993.603 8  88882415.98308      -941.197 8        48.094    21705994.628 7  88882400.97807      -941.176 7        43.156
G20  25459699.890 6 133791626.69106      4425.196 6        38.969    25459702.163 2 104253224.15402      3448.162 2        15.031
G22  23137547.153 7 121588631.87907      -155.897 7        42.844    23137546.647 4  94744383.79404      -121.474 4        27.000
G24  25710404.204 6 135109079.37006     -2399.073 6        37.625    25710407.795 4 105279822.72504     -1869.400 4        29.344    25710408.854 5 105279828.73905     -1869.585 5        34.719
G25  19969582.767 8 104940863.04008      1027.284 8        49.156    19969583.990 9  81772105.38309       800.478 9        54.063    19969584.622 7  81772108.39107       800.467 7        47.688
G29  21257493.502 7 111708883.52207      3730.925 7        46.969    21257493.059 8  87045882.57508      2907.210 8        49.906    21257493.720 7  87045883.58707      2907.267 7        44.688
G31  21788960.588 7 114501761.39907      3360.858 7        47.375    21788959.077 6  89222147.36906      2618.851 6        38.625    21788959.920 7  89222147.37407      2618.932 7        43.531
G32  23908606.628 7 125640572.08307     -1334.084 7        42.125    23908609.374 4  97901756.93804     -1039.542 4        25.875    23908610.898 6  97901753.94406     -1039.465 6        37.719
> 2022 02 14 14 38 19.0000000  0 10
G02  22467792.891 7 118069051.11407      1094.750 7        46.063    22467790.609 6  92001846.88006       853.049 6        36.156
G06  23999117.360 6 126116208.57306     -1174.318 6        39.156    23999119.700 6  98272378.98706      -915.048 6        38.656    23999120.867 6  98272383.00306      -915.199 6        41.063
G12  21706224.728 7 114066979.82707     -1207.190 7        47.188    21706223.364 8  88883356.80008      -940.671 8        48.094    21706224.329 7  88883341.78707      -940.586 7        43.125
G20  25458857.843 6 133787200.66506      4426.337 6        39.000    25458859.920 2 104249775.29502      3449.100 2        15.125
G22  23137576.440 7 121588787.39607      -155.338 7        42.969    23137576.223 4  94744504.97404      -121.046 4        27.000
G24  25710860.413 6 135111477.93206     -2398.084 6        37.625    25710864.218 4 105281691.73004     -1868.642 4        29.438    25710865.012 5 105281697.75605     -1868.787 5        34.438
G25  19969387.234 8 104939835.30008      1027.770 8        49.156    19969388.419 9  81771304.54809       800.854 9        54.063    19969389.042 7  81771307.55307       800.895 7        47.625
G29  21256783.524 7 111705152.17007      3731.450 7        46.688    21256783.019 8  87042975.03208      2907.616 8        49.906    21256783.680 7  87042976.03607      2907.720 7        44.750
G31  21788320.982 7 114498400.11107      3361.363 7        47.469    21788319.429 6  89219528.18506      2619.238 6        38.594    21788320.243 7  89219528.18007      2619.320 7        43.625
G32  23908860.395 7 125641905.58507     -1333.277 7        42.344    23908863.183 4  97902796.02504     -1038.915 4        25.938    23908864.981 6  97902793.02906     -1038.895 6        37.156
> 2022 02 14 14 38 20.0000000  0 10
G02  22467584.699 7 118067957.00807      1093.491 7        46.000    22467582.392 6  92000994.32506       852.074 6        36.188
G06  23999340.787 6 126117383.59506     -1175.604 6        38.938    23999343.303 6  98273294.58306      -916.049 6        38.688    23999344.313 6  98273298.58606      -916.049 6        41.188
G12  21706454.498 7 114068187.53207     -1208.168 7        47.281    21706453.188 8  88884297.86508      -941.431 8        48.125    21706454.157 7  88884282.86907      -941.379 7        43.063
G20  25458015.660 6 133782774.79306      4425.594 6        38.813    25458017.694 2 104246326.56802      3448.488 2        14.938
G22  23137606.091 7 121588943.45407      -156.531 7        42.938    23137605.919 4  94744626.58004      -121.976 4        26.969
G24  25711316.549 6 135113876.46206     -2398.792 6        38.125    25711320.646 4 105283560.71404     -1869.189 4        29.531    25711321.141 5 105283566.70505     -1869.188 5        34.344
G25  19969191.838 8 104938808.10408      1026.628 8        49.156    19969192.951 9  81770504.13409       799.969 9        54.063    19969193.516 7  81770507.13807       799.975 7        47.875
G29  21256073.603 7 111701421.31807      3730.319 7        46.844    21256073.073 8  87040067.87308      2906.739 8        49.938    21256073.744 7  87040068.88307      2906.755 7        44.719
G31  21787681.499 7 114495039.37907      3360.125 7        47.563    21787679.902 6  89216909.43306      2618.278 6        38.625    21787680.684 7  89216909.43207      2618.324 7        43.719
G32  23909114.202 7 125643239.42807     -1334.210 7        42.531    23909116.992 4  97903835.38204     -1039.643 4        25.813    23909118.956 6  97903832.37906     -1039.619 6        37.375
> 2022 02 14 14 38 21.0000000  0 10
G02  22467376.627 7 118066863.44707      1093.047 7        46.031    22467374.288 6  92000142.20006       851.723 6        36.156
G06  23999564.444 6 126118558.99106     -1175.989 6        38.688    23999566.974 6  98274210.47406      -916.356 6        38.781    23999568.020 6  98274214.46706      -916.240 6        41.250
G12  21706684.289 7 114069395.51907     -1208.389 7        47.250    21706683.065 8  88885239.15308      -941.603 8        48.094    21706683.999 7  88885224.15207      -941.617 7        42.875
G20  25457173.196 6 133778349.04006      4425.477 6        38.844    25457175.486 2 104242877.92802      3448.406 2        15.094
G22  23137635.918 7 121589099.96807      -156.944 7        43.250    23137635.704 4  94744748.53604      -122.293 4        27.063
G24  25711773.263 6 135116274.87706     -2398.768 6        37.781    25711777.055 4 105285429.61004     -1869.162 4        29.469    25711777.291 5 105285435.62705     -1868.885 5        33.656
G25  19968996.383 8 104937781.38108      1026.228 8        49.000    19968997.572 9  81769704.09109       799.658 9        54.063    19968998.123 7  81769707.09407       799.690 7        47.781
G29  21255363.622 7 111697690.89807      3729.895 7        46.906    21255363.217 8  87037161.05308      2906.410 8        49.938    21255363.772 7  87037162.06607      2906.427 7        44.750
G31  21787042.162 7 114491679.14407      3359.686 7        47.500    21787040.469 6  89214291.06906      2617.937 6        38.594    21787041.057 7  89214291.07007      2618.017 7        43.594
G32  23909367.987 7 125644573.53807     -1334.629 7        42.625    23909370.851 4  97904874.94604     -1039.967 4        25.875    23909372.959 6  97904871.95906     -1040.063 6        37.406
> 2022 02 14 14 38 22.0000000  0 10
G02  22467168.524 7 118065770.74607      1092.351 7        46.219    22467166.335 6  91999290.74606       851.184 6        36.156
G06  23999788.405 6 126119735.12306     -1176.501 6        39.031    23999790.778 6  98275126.94006      -916.753 6        38.844    23999791.767 6  98275130.94506      -916.706 6        41.125
G12  21706914.301 7 114070604.09707     -1208.823 7        47.188    21706913.054 8  88886180.90308      -941.943 8        48.094    21706913.952 7  88886165.89407      -941.782 7        42.844
G20  25456330.965 6 133773923.68506      4425.111 6        39.000    25456333.359 2 104239429.58902      3448.135 2        15.125
G22  23137665.977 7 121589257.27607      -157.548 7        43.406    23137665.615 4  94744871.11404      -122.766 4        27.063
G24  25712229.539 6 135118673.52506     -2398.780 6        37.688    25712233.505 4 105287298.68704     -1869.186 4        29.344    25712233.859 5 105287304.69905     -1869.040 5        33.750
G25  19968801.106 8 104936755.45908      1025.662 8        49.094    19968802.355 9  81768904.67209       799.216 9        54.094    19968802.914 7  81768907.67607       799.195 7        47.844
G29  21254653.982 7 111693961.22407      3729.390 7        46.938    21254653.494 8  87034254.81508      2906.016 8        49.969    21254654.110 7  87034255.82007      2905.999 7        44.688
G31  21786402.971 7 114488319.71407      3359.117 7        47.625    21786401.188 6  89211673.33206      2617.495 6        38.625    21786401.685 7  89211673.33707      2617.504 7        43.563
G32  23909621.958 7 125645908.22707     -1334.860 7        42.719    23909624.808 4  97905914.95804     -1040.142 4        25.813    23909626.851 6  97905911.97706     -1040.304 6        37.344
> 2022 02 14 14 38 23.0000000  0 10
G02  22466960.695 7 118064678.82307      1091.332 7        46.406    22466958.534 6  91998439.89706       850.385 6        36.094
G06  24000012.408 6 126120911.87406     -1177.410 6        39.031    24000014.708 6  98276043.88806      -917.463 6        38.844    24000015.780 6  98276047.88006      -917.329 6        41.281
G12  21707144.359 7 114071813.17107     -1209.509 7        47.250    21707143.141 8  88887123.03808      -942.475 8        48.063    21707144.093 7  88887108.04007      -942.486 7        42.781
G20  25455488.905 6 133769498.65406      4424.672 6        39.188    25455491.245 2 104235981.51502      3447.810 2        15.000
G22  23137695.985 7 121589415.29607      -158.580 7        43.688    23137695.664 4  94744994.24204      -123.569 4        27.000
G24  25712685.820 6 135121072.30206     -2399.043 6        37.188    25712689.968 4 105289167.86004     -1869.385 4        29.219    25712690.387 5 105289173.88005     -1869.494 5        33.531
G25  19968606.014 8 104935730.24808      1024.616 8        49.125    19968607.262 9  81768105.80609       798.401 9        54.031    19968607.908 7  81768108.81007       798.404 7        47.688
