     3.04           OBSERVATION DATA    G                   RINEX VERSION / TYPE
sbf2rin-15.9.0                          20240324 110252 UTC PGM / RUN BY / DATE 
ALT3                                                        MARKER NAME         
Unknown                                                     MARKER NUMBER       
Unknown             Unknown                                 OBSERVER / AGENCY   
3058190             SEPT ALTUS NR3      1.3.3-r81487        REC # / TYPE / VERS 
Altus NR3           SEPALTUS_NR3    NONE                    ANT # / TYPE        
  3509702.3046   779240.6127  5250781.9309                  APPROX POSITION XYZ 
        0.0000        0.0000        0.0000                  ANTENNA: DELTA H/E/N
G   12 C1C L1C D1C S1C C2W L2W D2W S2W C2L L2L D2L S2L      SYS / # / OBS TYPES 
SEPTENTRIO RECEIVERS OUTPUT ALIGNED CARRIER PHASES.         COMMENT             
NO FURTHER PHASE SHIFT APPLIED IN THE RINEX ENCODER.        COMMENT             
G L1C                                                       SYS / PHASE SHIFT   
G L2W                                                       SYS / PHASE SHIFT   
G L2L  0.00000                                              SYS / PHASE SHIFT   
     1.000                                                  INTERVAL            
  2024     2    29     8    37   27.0000000     GPS         TIME OF FIRST OBS   
  2024     2    29     8    54   21.0000000     GPS         TIME OF LAST OBS    
    48                                                      # OF SATELLITES     
DBHZ                                                        SIGNAL STRENGTH UNIT
    18                                                      LEAP SECONDS        
                                                            END OF HEADER       
> 2024 02 29 08 37 27.0000000  0 12
G02  25718112.548 4                       -91.795 4        26.563
G10  23762883.813 5 124874766.76605       270.180 5        31.969    23762882.164 1  97305033.45501       210.448 1         3.375    23762884.673 5                       211.274 5        32.781
G12  21506715.653 7 113018566.83107      4604.354 7        46.219    21506716.287 7  88066418.37307      3587.812 7        43.531    21506715.761 7  88066431.40907      3587.669 7        43.188
G13  24993054.263 4                     -2197.425 4        26.844
G14  25302493.972 4                     -1772.490 4        27.844                                                                    25302518.357 4                     -1381.550 4        24.219
G15  23415847.216 5                     -2054.356 5        30.219                                                                    23415854.975 6  95883935.79506     -1600.995 6        38.188
G17  22591315.270 5                      -149.717 5        31.094                                                                    22591319.178 5  92507666.78505      -117.039 5        34.313
G19  21273695.054 7 111794025.15907      2055.031 7        43.000    21273692.817 4  87112219.16404      1601.315 4        26.688
G22  23730938.585 4                     -1351.105 4        27.688
G23                                                                                                                                  24642229.611 4                     -1015.816 4        25.313
G24  20035837.164 8 105289026.07408      1089.147 8        49.219    20035839.185 8  82043398.83108       848.687 8        50.625    20035839.872 7  82043398.84907       848.741 7        46.688
G32  23946271.632 5 125838515.77905      4795.876 5        30.344    23946274.499 1  98055977.67301      3737.034 1        11.531    23946275.809 5  98056002.67605      3737.197 5        34.938
> 2024 02 29 08 37 28.0000000  0 12
G02  25718130.717 4                       -92.226 4        27.781
G10  23762832.411 5 124874495.93005       270.030 5        32.469    23762830.844 1  97304822.50901       210.406 1         2.594    23762833.831 5                       210.717 5        31.688
G12  21505839.599 7 113013962.28607      4604.398 7        45.563    21505840.041 7  88062830.41807      3587.841 7        43.563    21505839.677 7  88062843.45407      3587.749 7        43.344
G13  24993469.981 4                     -2197.865 4        29.094
G14  25302831.888 4                     -1772.833 4        26.438                                                                    25302857.641 4                     -1381.454 4        25.469
G15  23416238.309 4                     -2054.401 4        29.625                                                                    23416245.637 6  95885536.48106     -1600.739 6        38.375
G17  22591344.903 5                      -150.186 5        30.344                                                                    22591347.799 5  92507783.55105      -117.143 5        34.875
G19  21273303.871 7 111791969.89907      2054.857 7        42.656    21273301.738 4  87110617.66204      1601.188 4        26.656
G22  23731195.440 4                     -1351.824 4        26.750
G23                                                                                                                                  24642477.544 4                     -1016.869 4        26.625
G24  20035629.860 8 105287936.61808      1089.123 8        49.094    20035631.885 8  82042549.90908       848.669 8        50.781    20035632.484 7  82042549.92307       848.657 7        46.906
G32  23945358.797 5 125833719.63505      4796.150 5        31.906    23945361.863 1  98052240.44101      3737.190 1        11.750    23945363.654 5  98052265.46605      3737.138 5        35.031
> 2024 02 29 08 37 29.0000000  0 11
G02  25718147.941 5                       -92.751 5        31.000
G10  23762781.086 5 124874225.58905       270.618 5        32.000    23762779.313 1  97304611.79401       210.812 1         2.375    23762782.657 5                       210.670 5        31.406
G12  21504963.459 7 113009358.08607      4604.076 7        45.469    21504963.867 7  88059242.73707      3587.589 7        43.625    21504963.777 7  88059255.75307      3587.518 7        43.344
G14  25303170.407 4                     -1773.358 4        25.156                                                                    25303196.644 4                     -1382.257 4        24.000
G15  23416629.303 4                     -2054.484 4        29.563                                                                    23416636.454 6  95887137.31206     -1600.840 6        38.094
G17  22591373.938 5                      -150.689 5        30.344                                                                    22591376.623 5  92507900.65605      -117.236 5        35.094
G19  21272912.964 7 111789915.31207      2054.179 7        42.781    21272910.726 4  87109016.67904      1600.671 4        26.250
G22  23731453.645 5                     -1351.317 5        30.156
G23                                                                                                                                  24642727.593 4                     -1017.540 4        27.188
G24  20035422.721 8 105286847.69408      1088.601 8        49.094    20035424.692 8  82041701.39508       848.260 8        50.938    20035425.202 7  82041701.40207       848.328 7        47.156
G32  23944446.004 5 125828923.88305      4795.799 5        33.375    23944449.236 2  98048503.52402      3736.984 2        12.000    23944451.222 5  98048528.48305      3736.896 5        35.250
> 2024 02 29 08 37 30.0000000  0 11
G02  25718165.747 4                       -92.796 4        28.156
G10  23762730.387 5 124873955.32505       268.769 5        31.125    23762727.554 1  97304401.20501       209.437 1         3.375    23762730.710 5                       210.408 5        31.000
G12  21504087.332 7 113004753.65207      4603.888 7        45.781    21504087.661 7  88055654.86807      3587.439 7        43.594    21504087.572 7  88055667.89907      3587.458 7        43.750
G14  25303509.021 3                     -1772.879 3        23.188
G15  23417020.964 5                     -2053.737 5        30.906                                                                    23417027.662 6  95888737.73006     -1600.565 6        38.281
G17  22591403.526 5                      -150.445 5        30.031                                                                    22591405.428 5  92508017.72005      -117.589 5        35.469
G19  21272522.055 7 111787860.78807      2053.832 7        43.000    21272519.692 4  87107415.74604      1600.388 4        26.094
G22  23731710.074 4                     -1350.872 4        29.906
G23                                                                                                                                  24642975.442 4                     -1017.004 4        26.750
G24  20035215.414 8 105285758.73008      1088.362 8        48.938    20035217.491 8  82040852.85208       848.073 8        51.000    20035218.050 7  82040852.85107       848.066 7        46.750
G32  23943533.021 5 125824127.80605      4795.726 5        34.094    23943536.520 2  98044766.31502      3736.990 2        12.656    23943538.278 5  98044791.24205      3737.065 5        32.844
> 2024 02 29 08 37 31.0000000  0 11
G02  25718182.610 4                       -94.107 4        26.344
G10  23762680.998 5 124873686.17105       269.066 5        32.250    23762676.170 1  97304191.34001       209.521 1         2.594    23762678.907 5                       209.521 5        30.656
G12  21503211.242 7 113000150.41907      4603.439 7        46.031    21503211.693 7  88052067.93407      3587.107 7        43.594    21503211.555 7  88052080.95407      3586.986 7        43.719
G14  25303847.460 4                     -1771.438 4        24.188
G15  23417412.995 5                     -2054.753 5        30.375                                                                    23417418.686 6  95890338.94406     -1601.011 6        38.969
G17  22591431.474 5                      -151.586 5        30.594                                                                    22591434.080 5  92508135.75705      -118.350 5        35.188
G19  21272131.561 7 111785807.76607      2053.063 7        42.531    21272128.930 4  87105815.98904      1599.791 4        25.875
G22  23731966.969 4                     -1351.704 4        26.688
G23  24643229.915 3                     -1306.930 3        20.563                                                                    24643221.703 3                     -1017.625 3        23.750
G24  20035008.398 8 105284671.13908      1087.621 8        48.438    20035010.539 8  82040005.37908       847.503 8        50.938    20035011.017 7  82040005.37007       847.588 7        46.438
G32  23942620.518 5 125819332.80005      4795.147 5        33.438    23942624.054 2  98041029.90402      3736.476 2        12.531    23942625.814 5  98041054.92805      3736.518 5        34.156
> 2024 02 29 08 37 32.0000000  0 12
G02  25718199.843 4                       -94.164 4        28.281
G10  23762631.251 5 124873417.25505       267.495 5        32.000    23762625.073 1  97303981.80901       208.451 1         4.125    23762626.790 4                       209.311 4        29.531
G12  21502335.234 7 112995547.23507      4602.348 7        44.969    21502335.711 7  88048481.03407      3586.244 7        43.563    21502335.603 7  88048494.03107      3586.241 7        43.688
G13  24995133.134 4                     -2197.173 4        27.563
G14  25304184.375 4                     -1772.098 4        25.313
G15  23417804.616 5                     -2055.052 5        32.031                                                                    23417809.870 6  95891939.98806     -1601.726 6        39.094
G17  22591460.338 4                      -151.774 4        29.938                                                                    22591462.425 5  92508253.87705      -118.703 5        35.063
G19  21271741.181 7 111783755.08907      2051.682 7        42.594    21271738.249 4  87104216.49504      1598.710 4        25.719
G22  23732223.940 4                     -1350.753 4        24.688
G23                                                                                                                                  24643469.028 4                     -1018.431 4        24.781
G24  20034801.557 7 105283583.75107      1086.513 7        47.938    20034803.629 8  82039158.05908       846.635 8        50.781    20034804.013 7  82039158.05307       846.672 7        46.313
G32  23941708.732 5 125814537.85205      4794.324 5        33.813    23941711.597 1  98037293.60101      3735.867 1        11.750    23941713.589 5  98037318.56305      3735.597 5        34.000
> 2024 02 29 08 37 33.0000000  0 12
G02  25718217.283 4                       -94.205 4        24.375
G10  23762581.464 4 124873149.13604       268.030 4        28.906    23762574.083 1  97303772.88101       208.702 1         4.125    23762575.840 5                       208.713 5        31.313
G12  21501459.346 7 112990944.53007      4602.394 7        44.344    21501459.832 7  88044894.51107      3586.289 7        43.563    21501460.038 7  88044907.53507      3586.143 7        44.313
G13  24995549.522 5                     -2197.753 5        30.563
G14  25304522.322 3                     -1772.620 3        23.688
G15  23418196.419 6                     -2055.666 6        36.156                                                                    23418200.626 6  95893541.24506     -1601.545 6        38.844
G17  22591489.019 5                      -152.628 5        30.031                                                                    22591491.400 5  92508372.51805      -119.103 5        35.219
G19  21271350.771 7 111781703.25507      2051.326 7        42.719    21271347.751 4  87102617.66304      1598.444 4        25.625
G22  23732480.660 3                     -1352.050 3        22.469
G23                                                                                                                                  24643717.118 4                     -1017.788 4        26.063
G24  20034594.686 7 105282497.10507      1086.182 7        47.531    20034596.861 8  82038311.31908       846.381 8        50.531    20034597.344 7  82038311.31707       846.344 7        45.938
G32  23940796.417 5 125809743.37205      4793.719 5        34.438    23940799.203 1  98033557.63301      3735.376 1        11.469    23940801.103 5  98033582.58105      3735.503 5        33.313
> 2024 02 29 08 37 34.0000000  0 12
G02  25718234.141 4                       -94.606 4        26.000
G10  23762530.496 4 124872881.33204       266.997 4        28.094    23762523.111 1  97303564.35601       207.918 1         2.375    23762526.442 5                       208.632 5        30.156
G12  21500583.447 7 112986342.18207      4601.277 7        44.094    21500584.038 7  88041308.26407      3585.407 7        43.563    21500584.353 7  88041321.28307      3585.400 7        44.219
G13  24995965.624 5                     -2197.751 5        30.219
G14  25304861.857 3                     -1772.234 3        23.938
G15  23418588.460 5                     -2055.668 5        33.594                                                                    23418591.691 6  95895142.54906     -1602.187 6        38.875
G17  22591516.833 4                      -153.125 4        29.375                                                                    22591520.192 5  92508491.50705      -119.903 5        34.750
G19  21270960.382 7 111779652.01707      2050.109 7        42.469    21270957.338 4  87101019.29504      1597.502 4        25.375
G22  23732738.176 4                     -1351.710 4        25.594
G23  24643982.888 3                     -1306.395 3        23.781                                                                    24643964.573 4                     -1017.532 4        27.438
G24  20034388.048 7 105281410.91007      1085.026 7        47.625    20034390.178 8  82037464.93108       845.477 8        50.375    20034390.646 7  82037464.93507       845.451 7        46.250
G32  23939884.569 5 125804949.03705      4793.076 5        35.281    23939886.893 1  98029821.78801      3734.897 1        11.906    23939888.678 5  98029846.73305      3735.010 5        32.813
> 2024 02 29 08 37 35.0000000  0 12
G02  25718251.106 3                       -96.949 3        23.094
G10  23762481.738 4 124872614.36104       267.464 4        27.188    23762472.300 1  97303356.26701       208.520 1         2.000    23762475.546 4                       207.952 4        29.344
G12  21499707.477 7 112981740.43307      4602.091 7        44.719    21499708.373 7  88037722.49007      3586.048 7        43.406    21499708.684 7  88037735.49407      3586.055 7        43.656
G13  24996382.246 4                     -2198.257 4        27.844
G14  25305198.534 3                     -1774.744 3        22.000
G15  23418979.973 5                     -2054.868 5        31.875                                                                    23418982.282 6  95896744.18806     -1601.329 6        38.438
G17  22591545.733 5                      -153.727 5        31.156                                                                    22591549.270 5  92508611.02905      -119.555 5        34.813
G19  21270570.025 7 111777601.70507      2050.481 7        42.438    21270567.077 4  87099421.64104      1597.790 4        25.281
G22  23732995.670 4                     -1352.611 4        28.094
G23  24644231.040 3                     -1306.236 3        23.719                                                                    24644213.066 4                     -1017.744 4        26.656
G24  20034181.528 7 105280325.51907      1085.597 7        47.500    20034183.660 8  82036619.17108       845.917 8        50.250    20034184.231 7  82036619.17307       845.950 7        46.469
G32  23938972.404 5 125800155.31005      4794.306 5        35.313    23938974.723 1  98026086.44601      3735.815 1        11.156    23938976.193 5  98026111.37505      3735.617 5        32.469
> 2024 02 29 08 37 36.0000000  0 11
G10                                                                                                                                  23762425.692 5                       207.903 5        30.938
G12  21498831.703 7 112977138.56107      4602.110 7        44.000    21498832.655 7  88034136.61207      3586.069 7        43.469    21498832.952 7  88034149.63407      3586.030 7        43.750
G13  24996798.361 5                     -2197.027 5        32.938
G14  25305536.598 3                     -1773.019 3        21.281
G15  23419370.712 5                     -2054.286 5        35.156                                                                    23419373.334 6  95898345.54606     -1600.989 6        38.281
G17  22591575.639 5                      -153.612 5        33.406                                                                    22591578.602 5  92508730.59905      -119.614 5        34.406
G19  21270179.873 7 111775551.64007      2050.210 7        42.781    21270176.875 4  87097824.18804      1597.571 4        25.375
G22  23733253.745 4                     -1352.165 4        26.250
G23  24644482.019 3                     -1305.544 3        22.375                                                                    24644461.715 4                     -1018.256 4        26.375
G24  20033974.823 7 105279240.20207      1085.519 7        47.063    20033977.156 8  82035773.46908       845.863 8        50.094    20033977.788 7  82035773.47507       845.865 7        46.313
G32  23938060.745 5 125795361.47405      4794.355 5        33.000    23938062.521 1  98022351.01301      3735.768 1        11.250    23938063.894 5  98022375.93605      3735.789 5        32.469
> 2024 02 29 08 37 37.0000000  0 10
G10                                                                                                                                  23762375.261 5                       207.729 5        30.000
G12  21497955.886 7 112972536.87207      4602.401 7        44.563    21497956.973 7  88030550.88007      3586.290 7        43.375    21497957.212 7  88030563.90707      3586.219 7        43.906
G14  25305872.926 3                     -1769.187 3        21.281
G15  23419759.144 5 123071671.80615     -2054.425 5        34.563    23419762.267 4                     -1601.077 4        26.438    23419764.310 6  95899946.83506     -1600.659 6        38.250
G17  22591606.037 5                      -153.761 5        32.625                                                                    22591607.711 5  92508850.29805      -119.196 5        33.625
G19  21269789.870 7 111773501.99107      2050.141 7        42.344    21269786.770 4  87096227.05404      1597.515 4        25.438
G22  23733512.625 4                     -1351.459 4        29.875
G23                                                                                                                                  24644710.114 4                     -1017.376 4        25.031
G24  20033768.217 7 105278155.23507      1085.329 7        46.875    20033770.720 8  82034928.03908       845.713 8        49.875    20033771.461 7  82034928.04407       845.704 7        45.906
G32  23937148.822 5 125790567.66705      4794.463 5        33.063    23937150.296 1  98018615.57201      3735.940 1        10.219    23937151.903 5  98018640.50905      3735.917 5        33.563
> 2024 02 29 08 37 38.0000000  0 12
G02  25718307.802 3                       -96.493 3        22.656
G10                                                                                                                                  23762325.532 5                       207.348 5        30.438
G12  21497080.123 7 112967935.35607      4601.341 7        45.250    21497081.335 7  88026965.28607      3585.455 7        43.531    21497081.688 7  88026978.30707      3585.451 7        43.750
G13  24997630.749 5                     -2196.484 5        31.219
G14  25306208.772 3                     -1769.008 3        19.469
G15  23420150.370 6 123073726.73206     -2055.057 6        36.094    23420153.337 4  95901612.10514     -1601.350 4        26.875    23420155.343 6  95901548.13506     -1601.327 6        37.750
G17  22591635.854 5                      -154.029 5        31.688                                                                    22591636.583 5  92508970.27205      -119.997 5        34.094
G19  21269399.936 7 111771452.85607      2048.935 7        42.406    21269396.773 4  87094630.31904      1596.579 4        25.406
G22  23733770.432 5                     -1351.349 5        30.125
G23                                                                                                                                  24644959.268 4                     -1017.836 4        25.281
G24  20033561.855 7 105277070.61707      1084.203 7        47.063    20033564.345 8  82034082.88208       844.834 8        49.719    20033565.004 7  82034082.89207       844.946 7        45.875
G32  23936236.354 5 125785773.99805      4793.331 5        33.938    23936238.099 1  98014880.25301      3735.059 1        10.438    23936239.537 5  98014905.19705      3735.262 5        33.406
> 2024 02 29 08 37 39.0000000  0 12
G02  25718326.198 3                       -95.990 3        22.469
G10                                                                                                                                  23762275.879 5                       206.916 5        31.688
G12  21496204.551 7 112963334.26307      4601.426 7        44.938    21496205.787 7  88023380.02307      3585.523 7        43.594    21496206.128 7  88023393.03807      3585.496 7        43.219
G13  24998047.518 5                     -2196.301 5        30.031
G14  25306546.411 3                     -1772.360 3        20.063
G15  23420541.540 5 123075781.86505     -2054.637 5        34.969    23420544.465 4  95903213.49104     -1600.982 4        26.781    23420546.219 6  95903149.50906     -1600.942 6        37.063
G17  22591665.724 5                      -154.571 5        33.656                                                                    22591665.924 5  92509090.67005      -120.273 5        34.281
G19  21269010.212 7 111769404.42607      2048.729 7        42.188    21269006.906 4  87093034.13504      1596.425 4        25.281
G22  23734028.213 4                     -1351.298 4        29.156
G23                                                                                                                                  24645205.717 3                     -1017.141 3        23.156
G24  20033355.603 7 105275986.58307      1084.306 7        47.656    20033358.083 8  82033238.17808       844.914 8        49.719    20033358.727 7  82033238.19707       844.931 7        45.906
G32  23935323.540 5 125780980.68905      4793.588 5        33.938    23935325.964 1  98011145.19501      3735.216 1        10.719    23935327.086 5  98011170.18905      3735.306 5        32.969
> 2024 02 29 08 37 40.0000000  0 11
G02  25718344.321 3                       -96.460 3        19.313
G10                                                                                                                                  23762225.891 5                       205.916 5        31.219
G12  21495329.242 7 112958734.08807      4600.779 7        44.938    21495330.400 7  88019795.47407      3585.027 7        43.531    21495330.481 7  88019808.46907      3584.976 7        42.844
G13  24998464.050 4                     -2197.147 4        28.344
G15  23420933.078 6 123077837.72206     -2054.959 6        36.344    23420935.813 4  95904815.45104     -1601.261 4        26.906    23420937.277 6  95904751.46206     -1601.371 6        37.313
G17  22591694.929 5                      -154.744 5        34.469                                                                    22591695.534 5  92509211.85705      -120.798 5        33.813
G19  21268620.801 7 111767357.25307      2047.633 7        42.344    21268617.311 4  87091438.93504      1595.570 4        25.250
G22  23734284.682 5                     -1352.257 5        31.531
G23                                                                                                                                  24645453.588 3                     -1017.081 3        20.875
G24  20033149.648 7 105274903.68107      1083.355 7        47.813    20033152.035 8  82032394.36108       844.174 8        49.781    20033152.495 7  82032394.36507       844.184 7        46.219
G32  23934411.472 5 125776188.29605      4793.315 5        33.625    23934414.021 1  98007410.87801      3735.078 1        10.219    23934415.027 5  98007435.85005      3734.840 5        33.531
> 2024 02 29 08 37 41.0000000  0 11
G02  25718360.486 3                       -97.900 3        23.781
G10  23762192.540 5 124871020.19005       263.125 5        30.875    23762169.285 1  97302113.89701       204.962 1         3.375    23762175.863 5                       205.631 5        30.500
G12  21494453.954 7 112954134.38607      4598.658 7        44.875    21494455.080 7  88016211.28707      3583.371 7        43.469    21494455.106 7  88016224.29707      3583.375 7        43.469
G13  24998881.297 4                     -2197.421 4        26.156
G15  23421325.149 5 123079893.73405     -2056.588 5        33.313    23421327.192 4  95906417.54004     -1602.551 4        27.156    23421328.769 6  95906353.59506     -1602.898 6        36.969
G17  22591724.557 5                      -157.131 5        33.469                                                                    22591725.202 5  92509333.49505      -122.496 5        34.000
G19  21268231.470 7 111765310.85707      2045.119 7        42.406    21268227.806 4  87089844.34004      1593.588 4        25.063
G22  23734541.421 5                     -1352.683 5        31.219
G23                                                                                                                                  24645702.863 4                     -1018.463 4        24.156
G24  20032943.768 7 105273821.43607      1081.135 7        47.938    20032946.108 8  82031551.05208       842.446 8        49.938    20032946.543 7  82031551.05507       842.312 7        46.406
G32  23933499.367 5 125771396.33905      4790.694 5        33.406    23933502.199 1  98003676.89701      3733.019 1        10.813    23933502.717 5  98003701.85805      3733.265 5        33.313
> 2024 02 29 08 37 42.0000000  0 11
G02  25718379.920 4                       -98.559 4        24.969
G10  23762143.692 4 124870757.28204       262.481 4        29.625    23762119.476 1  97301909.09301       204.337 1         4.000    23762125.543 4                       204.542 4        28.656
G12  21493578.696 7 112949535.63307      4598.418 7        45.406    21493579.970 7  88012627.84607      3583.186 7        43.563    21493579.898 7  88012640.86907      3583.065 7        43.656
G13  24999298.732 4                     -2197.656 4        27.063
G15  23421716.232 5 123081950.57105     -2057.227 5        34.406    23421718.713 4  95908020.27304     -1603.032 4        26.656    23421720.572 6  95907956.28106     -1603.054 6        36.875
G17  22591754.034 5                      -157.883 5        32.656                                                                    22591755.174 5  92509455.96105      -122.776 5        34.063
G19  21267842.328 7 111763265.69807      2044.747 7        42.094    21267838.533 4  87088250.71004      1593.307 4        25.063
G22  23734799.205 5                     -1353.677 5        30.844
G23                                                                                                                                  24645951.239 4                     -1019.051 4        24.000
G24  20032738.147 8 105272740.29308      1080.560 8        48.000    20032740.404 8  82030708.59908       841.997 8        50.063    20032740.810 7  82030708.60607       842.000 7        46.469
G32  23932587.595 5 125766605.18405      4790.426 5        31.688    23932590.484 1  97999943.51601      3732.785 1        10.500    23932590.119 5  97999968.49205      3732.572 5        32.063
> 2024 02 29 08 37 43.0000000  0 11
G02  25718399.264 4                       -99.425 4        26.750
G10  23762094.661 4 124870495.35904       260.735 4        29.656    23762069.684 1  97301705.02501       203.137 1         3.000    23762074.473 5                       203.712 5        30.125
G12  21492703.616 7 112944937.61007      4596.983 7        46.063    21492704.994 7  88009044.97207      3582.068 7        43.563    21492704.882 7  88009057.98407      3582.057 7        43.438
G13  24999717.012 4                     -2199.171 4        26.500
G15  23422107.676 5 123084007.87205     -2058.501 5        35.344    23422110.311 4  95909623.36004     -1604.011 4        26.531    23422111.668 6  95909559.34106     -1603.736 6        37.063
G17  22591783.847 5 118720632.00515      -159.053 5        32.156                                                                    22591785.833 5  92509579.09005      -124.004 5        34.031
G19  21267453.546 7 111761221.58907      2043.010 7        42.250    21267449.520 4  87086657.90004      1591.954 4        24.906
G22  23735058.059 5                     -1353.754 5        30.969
G23                                                                                                                                  24646202.701 4                     -1020.269 4        26.281
G24  20032532.651 8 105271660.06108      1079.050 8        48.281    20032534.866 8  82029866.85808       840.819 8        50.094    20032535.252 7  82029866.86707       840.866 7        46.375
G32  23931676.225 5 125761814.73905      4789.370 5        32.281    23931678.913 1  97996210.67501      3732.026 1        10.000    23931678.073 5  97996235.65805      3732.080 5        32.406
> 2024 02 29 08 37 44.0000000  0 11
G02  25718418.801 3                      -100.502 3        22.625
G10  23762044.427 5 124870233.59105       261.936 5        31.125    23762020.058 1  97301500.90301       204.279 1         2.781    23762023.470 5                       203.585 5        30.688
G12  21491828.603 7 112940339.70207      4598.162 7        45.625    21491830.023 7  88005462.18907      3582.983 7        43.750    21491829.974 7  88005475.18107      3583.041 7        43.031
G13  25000135.439 4                     -2198.353 4        29.281
G15  23422498.806 6 123086064.97906     -2056.957 6        38.125    23422501.833 4  95911226.29004     -1602.830 4        27.188    23422503.157 6  95911162.36206     -1602.824 6        37.875
G17  22591814.560 5 118720790.26705      -158.376 5        32.813    22591812.623 3  92509695.42813      -123.445 3        21.906    22591816.493 5  92509702.35205      -122.666 5        33.406
G19  21267064.575 7 111759177.89107      2043.740 7        42.063    21267060.561 4  87085065.40504      1592.542 4        24.813
G22  23735315.409 4                     -1353.707 4        27.625
G23                                                                                                                                  24646454.020 4                     -1019.403 4        25.063
G24  20032327.173 7 105270580.13907      1080.118 7        47.844    20032329.390 8  82029025.36008       841.654 8        50.156    20032329.724 7  82029025.36507       841.622 7        46.156
G32  23930765.758 4 125757024.43404      4789.971 4        29.938    23930767.359 1  97992477.95001      3732.484 1         9.313    23930766.126 5  97992502.90005      3732.753 5        31.313
> 2024 02 29 08 37 45.0000000  0 10
G02  25718437.166 3                      -101.788 3        22.563
G10  23761993.777 4 124869972.24004       261.569 4        27.875    23761970.347 1  97301297.22401       203.605 1         2.375    23761972.708 5                       203.598 5        31.750
G12  21490953.687 7 112935742.01207      4596.765 7        45.344    21490955.083 7  88001879.56707      3581.896 7        43.750    21490955.067 7  88001892.56907      3581.821 7        43.344
G13  25000555.360 5                     -2197.633 5        30.813
G15  23422890.367 6 123088122.17906     -2058.022 6        37.969    23422893.400 4  95912829.30204     -1603.654 4        28.188    23422895.098 6  95912765.30506     -1603.770 6        37.844
G17  22591844.735 5 118720948.80205      -159.443 5        32.500    22591842.816 3  92509818.95503      -124.256 3        21.906    22591846.725 5  92509825.90605      -124.451 5        34.031
G19  21266675.494 6 111757134.74006      2042.046 6        41.750    21266671.704 4  87083473.33404      1591.214 4        25.000
G22  23735571.150 4                     -1353.259 4        28.094
G24  20032121.855 7 105269500.61207      1078.587 7        47.438    20032123.986 8  82028184.16908       840.456 8        50.188    20032124.258 7  82028184.17307       840.453 7        46.125
G32  23929853.674 5 125752234.10205      4788.832 5        31.313    23929855.810 1  97988745.27901      3731.529 1         8.844    23929855.013 5  97988770.27305      3732.061 5        31.438
> 2024 02 29 08 37 46.0000000  0 11
G02  25718459.824 3                      -102.340 3        21.688
G10  23761942.974 4 124869711.60804       260.361 4        29.250    23761920.882 1  97301094.23301       202.726 1         1.094    23761923.650 5                       202.882 5        33.469
G12  21490078.968 7 112931144.88407      4597.316 7        45.656    21490080.254 7  87998297.38907      3582.327 7        43.750    21490080.205 7  87998310.40207      3582.177 7        43.063
G13  25000975.894 5                     -2198.058 5        32.688
G15  23423282.291 6 123090179.65506     -2057.339 6        38.750    23423285.029 4  95914432.52604     -1603.122 4        28.938    23423286.705 6  95914368.54206     -1603.147 6        37.063
G17  22591874.767 5 118721108.02905      -158.944 5        32.813    22591873.232 3  92509943.03103      -123.856 3        21.750    22591877.411 5  92509949.98605      -124.137 5        34.688
G19  21266286.650 7 111755092.44107      2042.314 7        42.219    21266283.039 4  87081881.93004      1591.422 4        24.844
G22  23735828.103 4                     -1353.496 4        27.531
G23                                                                                                                                  24646955.342 4                     -1020.324 4        26.594
G24  20031916.376 7 105268421.85107      1078.660 7        47.594    20031918.734 8  82027343.57708       840.510 8        50.094    20031918.997 7  82027343.57707       840.648 7        46.125
G32  23928942.112 4 125747444.27404      4790.107 4        29.469    23928944.332 1  97985012.91101      3732.551 1         9.125    23928944.329 5  97985038.03205      3732.488 5        30.438
> 2024 02 29 08 37 47.0000000  0 10
G10  23761892.467 5 124869451.48605       260.069 5        30.250                                                                    23761874.247 5                       202.422 5        33.375
G12  21489204.283 7 112926548.26007      4596.594 7        46.000    21489205.502 7  87994715.60207      3581.766 7        43.656    21489205.540 7  87994728.62107      3581.687 7        42.906
G13  25001395.520 5                     -2197.942 5        32.375
G15  23423673.797 6 123092237.40006     -2057.732 6        38.750    23423676.689 4  95916035.95804     -1603.420 4        29.125    23423678.172 6  95915971.95906     -1603.498 6        37.625
G17  22591905.278 5 118721267.80505      -160.131 5        34.500    22591903.835 3  92510067.52803      -124.773 3        21.750    22591908.322 5  92510074.52405      -124.917 5        35.438
G19  21265897.979 7 111753050.98207      2041.188 7        42.250    21265894.531 4  87080291.19404      1590.531 4        24.844
G22  23736086.442 4                     -1354.104 4        28.063
G23                                                                                                                                  24647204.344 3                     -1019.269 3        22.906
G24  20031711.249 7 105267343.71407      1078.010 7        46.875    20031713.599 8  82026503.47008       840.007 8        49.938    20031713.769 7  82026503.48607       839.973 7        46.188
G32  23928029.969 4 125742655.09004      4789.940 4        28.938    23928033.002 1  97981281.11301      3732.345 1         8.563    23928033.268 5  97981306.11605      3731.998 5        30.406
> 2024 02 29 08 37 48.0000000  0 10
G10  23761840.945 4 124869191.41904       260.799 4        27.875                                                                    23761824.992 5  97300700.86115       202.729 5        34.750
G12  21488329.547 7 112921951.33207      4596.704 7        45.906    21488330.687 7  87991133.57907      3581.852 7        43.594    21488330.699 7  87991146.60107      3581.876 7        42.625
G13  25001815.558 5                     -2197.364 5        32.781
G15  23424065.300 6 123094294.58506     -2057.359 6        37.656    23424068.256 4  95917638.94804     -1603.134 4        29.406    23424069.497 6  95917574.95706     -1603.203 6        36.406
G17  22591935.608 5 118721427.46105      -160.073 5        33.281    22591934.444 3  92510191.94003      -124.703 3        21.625    22591938.899 5  92510198.83105      -124.375 5        34.781
G19  21265509.480 6 111751009.49506      2040.909 6        41.938    21265506.041 4  87078700.42004      1590.314 4        24.688
G22  23736347.107 4                     -1352.947 4        26.750
G23                                                                                                                                  24647453.213 4                     -1019.412 4        24.375
G24  20031506.117 7 105266265.48607      1077.926 7        47.000    20031508.445 8  82025663.29308       839.941 8        49.625    20031508.547 7  82025663.29107       839.924 7        46.219
G32  23927118.968 5 125737865.38505      4790.214 5        32.125    23927121.574 1  97977548.90501      3732.618 1         8.469    23927122.687 5  97977573.98705      3732.040 5        32.563
> 2024 02 29 08 37 49.0000000  0 10
G10  23761789.612 5 124868932.15205       260.074 5        30.969                                                                    23761776.100 5  97300498.91205       201.888 5        34.844
G12  21487455.006 7 112917355.18807      4596.593 7        46.500    21487456.025 7  87987552.17207      3581.761 7        43.469    21487455.855 7  87987565.19307      3581.781 7        42.531
G13  25002235.541 5                     -2197.735 5        32.531
G15  23424456.626 6 123096352.38006     -2057.284 6        37.469    23424459.966 4  95919242.42204     -1603.084 4        29.250    23424460.998 6  95919178.39106     -1602.701 6        37.219
G17  22591965.626 5 118721587.96805      -159.764 5        32.813    22591965.204 3  92510316.99703      -124.496 3        21.594    22591969.822 5  92510323.98605      -125.243 5        34.813
G19  21265121.136 7 111748969.07807      2040.656 7        42.188    21265117.810 4  87077110.48104      1590.126 4        24.844
G22  23736606.085 4                     -1353.484 4        29.500
G23                                                                                                                                  24647703.726 4                     -1020.104 4        24.875
G24  20031301.010 7 105265188.23107      1077.630 7        47.281    20031303.488 8  82024823.87408       839.709 8        49.531    20031303.621 7  82024823.87707       839.814 7        46.688
G32  23926206.723 5 125733076.45805      4789.559 5        32.438    23926210.297 1  97973817.26801      3732.122 1         8.656    23926212.371 5  97973842.34105      3731.924 5        31.625
> 2024 02 29 08 37 50.0000000  0 10
G10  23761738.714 5 124868673.67805       257.617 5        30.531                                                                    23761726.599 5  97300297.47905       200.623 5        34.344
G12  21486580.623 7 112912759.59007      4594.739 7        46.938    21486581.469 7  87983971.18707      3580.322 7        43.594    21486581.430 7  87983984.20607      3580.459 7        43.188
G13  25002655.056 5                     -2198.071 5        32.188
G15  23424848.434 6 123098410.42906     -2058.658 6        36.594    23424851.702 4  95920846.08504     -1604.137 4        28.969    23424852.779 6  95920782.09906     -1604.132 6        36.656
G17  22591996.134 5 118721749.14405      -161.629 5        34.000    22591996.076 3  92510442.59003      -125.931 3        21.281    22592000.581 5  92510449.54505      -126.160 5        34.563
G19  21264733.074 7 111746929.55607      2038.619 7        42.469    21264729.723 4  87075521.23604      1588.531 4        24.875
G22  23736863.422 4                     -1352.980 4        28.281
G23                                                                                                                                  24647953.435 4                     -1020.416 4        28.594
G24  20031096.130 7 105264111.70407      1075.725 7        47.875    20031098.670 8  82023985.02508       838.226 8        49.719    20031098.827 7  82023985.02707       838.164 7        46.750
G32  23925295.443 5 125728288.08705      4787.646 5        34.531    23925299.101 1  97970086.07901      3730.629 1         8.375    23925301.231 5  97970111.10805      3730.539 5        32.656
> 2024 02 29 08 37 51.0000000  0 10
G10  24061480.107 4 126443835.86304       258.472 4        28.875                                                                    24061468.791 5  98527696.48005       201.741 5        31.000
G12  21785499.551 7 114483588.72707      4595.145 7        46.656    21785500.302 7  89207993.89307      3580.629 7        43.875    21785500.363 7  89208006.92307      3580.596 7        43.563
G13  25302867.126 5                     -2197.705 5        32.531
G15  23725032.280 6 124675886.29906     -2057.856 6        37.156    23725035.427 4  97150048.06404     -1603.521 4        28.719    23725036.457 6  97149984.11706     -1603.868 6        36.969
G17  22891819.213 5 120297330.50405      -161.979 5        33.594    22891819.509 3  93738168.33103      -126.214 3        21.250    22891823.679 5  93738175.21105      -126.119 5        35.063
G19  21564138.024 7 113320312.50307      2038.734 7        43.219    21564134.505 4  88301533.92404      1588.623 4        25.063
G22  24036913.272 4                     -1353.698 4        29.219
G23                                                                                                                                  24947996.085 5                     -1020.402 5        30.188
G24  20330684.012 7 106838456.57407      1075.578 7        47.719    20330686.565 8  83250747.26008       838.110 8        49.688    20330686.818 7  83250747.24907       838.248 7        46.813
G32  24224179.285 5 127298924.63705      4788.156 5        30.813    24224181.289 1  99193958.74601      3731.024 1         8.469    24224183.280 5  99193983.68105      3731.216 5        31.875
> 2024 02 29 08 37 52.0000000  0 10
G10  24061429.336 4 126443578.09904       257.674 4        26.750                                                                    24061418.224 5  98527495.83805       200.330 5        33.781
G12  21784625.138 7 114478993.76207      4594.922 7        46.656    21784625.916 7  89204413.40107      3580.460 7        43.938    21784626.120 7  89204426.43707      3580.407 7        42.188
G13  25303287.257 5                     -2197.702 5        33.500
G15  23725424.139 6 124677944.52406     -2058.102 6        37.656    23725427.119 4  97151651.87304     -1603.725 4        28.531    23725427.792 6  97151587.95006     -1603.955 6        36.125
G17  22891849.612 5 120297492.46305      -162.270 5        34.250    22891850.605 3  93738294.52103      -126.405 3        21.594    22891854.578 5  93738301.45505      -126.269 5        35.406
G19  21563750.333 7 113318274.24707      2038.049 7        42.938    21563746.569 4  88299945.67404      1588.094 4        25.313
G22  24037168.525 4                     -1354.308 4        28.406
G23  24948231.139 3                     -1309.003 3        19.719                                                                    24948245.548 4                     -1021.191 4        25.063
G24  20330479.236 7 106837380.99507      1075.358 7        47.188    20330481.917 8  83249909.14408       837.941 8        49.688    20330482.270 7  83249909.15707       838.008 7        46.719
G32  24223267.905 5 127294136.76105      4787.706 5        30.188    24223270.182 1  99190227.94101      3730.698 1         8.844    24223272.669 5  99190252.85105      3730.999 5        35.250
> 2024 02 29 08 37 53.0000000  0 11
G02  26018384.498 3                      -102.970 3        23.438
G10                                                                                                                                  24061369.377 5  98527295.68205       200.590 5        32.469
G12  21783750.939 7 114474399.29607      4594.157 7        45.781    21783751.566 7  89200833.30007      3579.864 7        43.844    21783751.716 7  89200846.30907      3580.002 7        42.281
G13  25303706.065 5                     -2197.869 5        31.813
G15  23725815.918 5 124680003.03905     -2058.505 5        35.719    23725818.842 4  97153255.92604     -1604.046 4        28.344    23725819.197 5  97153191.93405     -1603.899 5        35.750
G17  22891879.883 5 120297655.08805      -163.128 5        33.000    22891881.790 3  93738421.23503      -127.092 3        21.719    22891885.368 5  93738428.16805      -126.833 5        34.531
G19  21563362.831 7 113316236.75007      2037.104 7        42.875    21563358.790 4  88298358.01304      1587.343 4        25.594
G22  24037425.760 4                     -1354.713 4        29.000
G23  24948480.083 3                     -1309.517 3        22.094                                                                    24948496.522 4                     -1020.852 4        28.219
G24  20330274.679 7 106836306.13407      1074.596 7        47.406    20330277.407 8  83249071.59308       837.348 8        49.531    20330277.839 7  83249071.59607       837.433 7        46.688
G32  24222355.323 4 127289349.27604      4787.875 4        27.313    24222359.139 1  99186497.41001      3730.876 1         8.656    24222361.701 5  99186522.38405      3730.363 5        32.625
> 2024 02 29 08 37 54.0000000  0 11
G02  26018402.255 3                       -97.141 3        19.125
G10  24061327.473 4 126443064.83504       255.506 4        27.281                                                                    24061320.441 5  98527095.83905       199.178 5        31.031
G12  21782876.685 7 114469805.07907      4593.433 7        46.813    21782877.248 7  89197253.38807      3579.296 7        43.781    21782877.311 7  89197266.42807      3579.217 7        42.750
G13  25304125.950 4                     -2197.639 4        29.625
G15  23726207.319 6 124682061.54706     -2058.956 6        36.719    23726210.565 4  97154859.96104     -1604.393 4        27.938    23726211.224 5  97154795.97005     -1604.491 5        35.813
G17  22891911.012 5 120297818.09305      -163.791 5        34.781    22891913.064 3  93738548.23703      -127.610 3        22.219    22891916.392 5  93738555.17605      -127.942 5        34.969
G19  21562975.440 7 113314199.82307      2036.112 7        42.281    21562971.132 4  88296770.80004      1586.574 4        25.719
G22  24037683.826 3                     -1354.551 3        22.375
G23  24948732.023 3                     -1311.123 3        21.063                                                                    24948747.492 4                     -1020.996 4        29.688
G24  20330070.183 7 106835231.72307      1073.687 7        47.813    20330072.987 8  83248234.39108       836.643 8        49.688    20330073.358 7  83248234.38107       836.583 7        46.875
G32  24221443.851 4 127284562.07804      4786.289 4        29.250    24221448.148 1  99182767.08801      3729.468 1         9.031    24221450.780 5  99182792.05305      3730.040 5        34.031
> 2024 02 29 08 37 55.0000000  0 10
G02  26018421.076 3                      -103.702 3        22.531
G10                                                                                                                                  24061271.298 5  98526896.49305       199.196 5        32.844
G12  21782002.580 7 114465211.44107      4593.558 7        47.656    21782003.059 7  89193673.93507      3579.389 7        43.938    21782002.936 6  89193686.97906      3579.414 6        41.938
G15  23726598.848 6 124684120.42406     -2058.727 6        36.406    23726602.391 4  97156464.27604     -1604.197 4        27.406    23726602.991 5  97156400.23005     -1603.947 5        35.313
G17  22891942.168 5 120297981.75305      -163.474 5        34.875    22891944.433 3  93738675.76503      -127.374 3        22.375    22891947.041 5  93738682.71805      -127.586 5        35.625
G19  21562588.000 7 113312163.80707      2035.925 7        42.813    21562583.630 4  88295184.29704      1586.435 4        25.813
G22  24037939.160 4                     -1354.373 4        27.781
G23  24948981.119 3                     -1314.021 3        22.281                                                                    24948997.956 4                     -1021.623 4        26.781
G24  20329865.888 8 106834158.03408      1073.583 8        48.094    20329868.692 8  83247397.74908       836.556 8        49.969    20329868.964 7  83247397.74207       836.612 7        46.594
G32  24220532.924 4 127279775.30704      4786.272 4        29.688    24220537.248 1  99179037.14001      3729.550 1         9.219    24220539.800 5  99179062.17105      3729.971 5        35.469
> 2024 02 29 08 37 56.0000000  0 11
G02  26018438.708 3                      -103.771 3        21.281
G10                                                                                                                                  24061222.233 5  98526697.63705       198.153 5        31.094
G12  21781128.643 7 114460618.19207      4592.453 7        47.313    21781128.920 7  89190094.78507      3578.530 7        43.938    21781128.417 7  89190107.81807      3578.432 7        42.281
G14  25612070.979 3                     -1776.561 3        20.594
G15  23726990.474 6 124686179.44106     -2059.877 6        36.281    23726994.132 4  97158068.69504     -1605.104 4        26.781    23726994.300 5  97158004.69305     -1604.994 5        33.625
G17  22891973.017 5 120298145.94105      -165.277 5        34.750    22891975.886 3  93738803.69903      -128.769 3        22.469    22891977.461 5  93738810.63805      -128.474 5        34.250
G19  21562200.884 7 113310128.49307      2034.197 7        42.781    21562196.289 4  88293598.33104      1585.110 4        25.781
G22  24038196.341 5                     -1354.388 5        31.844
G23  24949230.792 3                     -1310.322 3        23.500                                                                    24949249.002 4                     -1021.636 4        26.563
G24  20329661.759 8 106833084.93508      1072.137 8        48.344    20329664.495 8  83246561.56508       835.431 8        50.188    20329664.721 7  83246561.56307       835.445 7        46.844
G32  24219622.088 4 127274988.93704      4787.239 4        26.250    24219626.445 1  99175307.47801      3730.420 1         9.500    24219628.539 6  99175332.57106      3729.037 6        36.469
> 2024 02 29 08 37 57.0000000  0 12
G02  26018461.102 4                      -106.453 4        24.625
G10                                                                                                                                  24061173.811 5  98526499.23405       198.050 5        32.156
G12  21780254.584 7 114456025.36607      4592.684 7        47.250    21780254.860 7  89186515.96307      3578.711 7        44.000    21780254.404 7  89186529.01307      3578.661 7        42.813
G13  25305387.793 4                     -2197.006 4        24.813
G14  25612410.366 3                     -1778.293 3        18.688
G15  23727382.686 5 124688238.59405     -2059.152 5        35.938    23727385.927 4  97159673.22804     -1604.551 4        26.281    23727386.219 5  97159609.23605     -1604.763 5        34.156
G17  22892004.780 5 120298310.64605      -165.062 5        35.406    22892007.349 3  93738932.03403      -128.607 3        22.375    22892008.650 5  93738938.95905      -128.701 5        33.406
G19  21561813.761 7 113308093.89807      2034.248 7        42.281    21561809.127 4  88292012.92404      1585.131 4        25.781
G22  24038453.898 4                     -1355.229 4        27.469
G23  24949481.968 3                     -1311.390 3        22.469
G24  20329457.747 8 106832012.41208      1072.213 8        48.625    20329460.406 8  83245725.83008       835.495 8        50.406    20329460.560 7  83245725.83407       835.565 7        47.188
G32  24218710.425 4 127270202.93204      4785.990 4        28.094    24218715.692 1  99171578.13201      3729.347 1         9.594    24218718.006 5  99171603.19405      3729.250 5        35.906
> 2024 02 29 08 37 58.0000000  0 12
G02  26018484.149 4                      -105.551 4        26.000
G10                                                                                                                                  24061125.588 5  98526300.87005       198.589 5        32.781
G12  21779380.662 7 114451432.46507      4592.919 7        46.938    21779380.801 7  89182937.08207      3578.894 7        44.188    21779380.389 7  89182950.10707      3579.003 7        42.563
G13  25305807.638 4                     -2197.476 4        27.156
G14  25612750.621 3                     -1770.011 3        21.781
G15  23727774.197 5 124690297.47905     -2058.512 5        35.875    23727777.623 4  97161277.54504     -1604.026 4        26.000    23727777.783 5  97161213.55605     -1604.055 5        34.469
G17  22892036.468 5 120298475.38805      -164.894 5        35.500    22892038.708 3  93739060.39103      -128.497 3        22.375    22892040.077 5  93739067.28005      -128.071 5        34.781
G19  21561426.771 7 113306059.52007      2034.111 7        42.438    21561422.023 4  88290427.68604      1585.020 4        25.844
G22  24038711.812 5                     -1354.407 5        30.469
G23  24949734.440 4                     -1310.939 4        26.719                                                                    24949751.966 4                     -1021.077 4        26.250
G24  20329253.694 8 106830940.00908      1072.458 8        48.281    20329256.348 8  83244890.19008       835.682 8        50.531    20329256.505 7  83244890.18507       835.721 7        46.844
G32  24217798.594 5 127265416.79905      4786.351 5        30.875    24217804.934 1  99167848.70201      3729.631 1         9.313    24217807.105 5  99167873.71705      3729.399 5        35.125
> 2024 02 29 08 37 59.0000000  0 12
G02  26018504.472 3                      -105.903 3        23.406
G10                                                                                                                                  24061077.330 5  98526103.31005       198.007 5        30.750
G12  21778506.839 7 114446840.36307      4593.086 7        46.250    21778506.890 7  89179358.82507      3579.028 7        44.313    21778506.726 7  89179371.85007      3579.110 7        43.094
G13  25306227.139 4                     -2198.157 4        26.906
G14  25613088.993 3                     -1770.865 3        22.344
G15  23728166.043 6 124692356.94006     -2058.310 6        36.531    23728169.400 4  97162882.30904     -1603.877 4        25.844    23728169.818 5  97162818.31505     -1604.111 5        35.813
G17  22892068.360 5 120298641.01105      -164.997 5        34.094    22892070.331 3  93739189.44003      -128.554 3        22.031    22892071.633 5  93739196.34905      -128.202 5        34.313
G19  21561039.753 7 113304026.25207      2033.983 7        42.000    21561035.156 4  88288843.31704      1584.940 4        25.875
G22  24038970.191 5                     -1354.783 5        30.656
G23  24949986.170 4                     -1311.321 4        24.406                                                                    24950002.511 4                     -1021.790 4        28.563
G24  20329049.847 8 106829868.59008      1072.264 8        48.406    20329052.469 8  83244055.31808       835.527 8        50.594    20329052.637 7  83244055.30907       835.650 7        46.938
G32  24216888.615 5 127260631.40505      4786.334 5        31.594    24216894.311 1  99164119.82701      3729.625 1        10.219    24216896.768 5  99164144.83805      3729.603 5        34.875
> 2024 02 29 08 38  0.0000000  0 11
G10  24061023.456 5 126441537.51405       253.040 5        30.031                                                                    24061029.174 5  98525905.76605       196.801 5        30.719
G12  21777632.809 7 114442248.35107      4591.348 7        47.188    21777633.014 7  89175780.63207      3577.674 7        44.406    21777633.097 7  89175793.65407      3577.564 7        43.094
G13  25306647.606 4                     -2197.485 4        28.063
G14  25613424.427 3                     -1771.686 3        22.625
G15  23728558.062 5 124694416.19305     -2059.667 5        35.406    23728561.234 4  97164486.91404     -1604.937 4        25.906    23728561.365 5  97164422.93905     -1605.250 5        33.813
G17  22892099.775 5 120298806.80805      -166.818 5        35.094    22892102.084 3  93739318.61803      -129.992 3        22.156    22892102.565 5  93739325.57605      -129.935 5        34.750
G19  21560652.735 7 113301993.37807      2032.053 7        42.594    21560648.352 4  88287259.25504      1583.418 4        25.906
