     3.04           OBSERVATION DATA    G                   RINEX VERSION / TYPE
sbf2rin-15.9.0                          20240324 110244 UTC PGM / RUN BY / DATE 
ALT3                                                        MARKER NAME         
Unknown                                                     MARKER NUMBER       
Unknown             Unknown                                 OBSERVER / AGENCY   
3058190             SEPT ALTUS NR3      1.3.3-r81487        REC # / TYPE / VERS 
Altus NR3           SEPALTUS_NR3    NONE                    ANT # / TYPE        
  3509747.1886   779162.9111  5250754.8655                  APPROX POSITION XYZ 
        0.0000        0.0000        0.0000                  ANTENNA: DELTA H/E/N
G   12 C1C L1C D1C S1C C2W L2W D2W S2W C2L L2L D2L S2L      SYS / # / OBS TYPES 
SEPTENTRIO RECEIVERS OUTPUT ALIGNED CARRIER PHASES.         COMMENT             
NO FURTHER PHASE SHIFT APPLIED IN THE RINEX ENCODER.        COMMENT             
G L1C                                                       SYS / PHASE SHIFT   
G L2W                                                       SYS / PHASE SHIFT   
G L2L  0.00000                                              SYS / PHASE SHIFT   
     1.000                                                  INTERVAL            
  2024     2    29     7    56   30.0000000     GPS         TIME OF FIRST OBS   
  2024     2    29     8    16   52.0000000     GPS         TIME OF LAST OBS    
    38                                                      # OF SATELLITES     
DBHZ                                                        SIGNAL STRENGTH UNIT
    18                                                      LEAP SECONDS        
                                                            END OF HEADER       
> 2024 02 29 07 56 30.0000000  0 10
G10  23654072.570 7 124302989.30707      1867.344 7        42.000    23654075.318 4  96859478.04104      1455.070 4        28.594    23654075.023 6  96859474.05206      1455.161 6        41.813
G12  23276853.182 6 122320693.04106      5462.993 6        39.938    23276855.414 5  95314829.87405      4256.875 5        35.906    23276856.572 6  95314837.89206      4256.775 6        39.156
G13  23417830.676 6 123061533.87006     -1899.670 6        38.688    23417834.840 3  95892113.94503     -1480.262 3        22.313
G14  23921151.054 6 125706496.00706     -1516.741 6        38.625    23921155.308 3  97953126.77403     -1181.874 3        23.656    23921155.605 6  97953117.76906     -1181.674 6        40.188
G15  22017156.121 7 115700931.07907     -1264.238 7        44.250    22017157.094 6  90156571.58906      -985.117 6        41.813    22017156.792 7  90156566.59307      -985.073 7        42.438
G17  22259625.582 7 116975119.53907      1341.520 7        44.594    22259625.980 7  91149447.66907      1045.342 7        43.313    22259626.352 7  91149453.68107      1045.305 7        42.938
G19  22043965.851 7 115841823.35807      3750.895 7        43.125    22043965.367 5  90266354.47505      2922.779 5        34.219
G22  22610995.788 7 118821584.10107      -814.482 7        44.813    22610995.946 5  92588249.90305      -634.663 5        32.281
G23  23624380.254 6 124146953.44106      -374.658 6        40.469    23624381.162 4  96737894.24004      -291.943 4        24.719    23624381.852 6  96737890.24506      -292.043 6        40.844
G24  20295715.601 8 106654703.02508      2573.128 8        48.844    20295717.105 8  83107564.63708      2005.036 8        52.000    20295717.272 7  83107564.63507      2005.097 7        46.438
> 2024 02 29 07 56 31.0000000  0 10
G10  23653717.017 7 124301122.40707      1866.584 7        42.281    23653720.021 4  96858023.32004      1454.483 4        28.531    23653719.779 6  96858019.31506      1454.490 6        41.594
G12  23275813.710 6 122315230.31406      5462.491 6        40.125    23275815.896 5  95310573.20505      4256.484 5        35.938    23275817.189 6  95310581.21206      4256.477 6        39.125
G13  23418192.015 6 123063433.72106     -1899.932 6        38.906    23418196.407 3  95893594.34303     -1480.460 3        22.344
G14  23921439.709 6 125708012.86206     -1517.000 6        38.531    23921443.955 3  97954308.72903     -1182.052 3        23.719    23921444.294 6  97954299.72706     -1182.024 6        40.344
G15  22017396.718 7 115702195.61607     -1264.763 7        44.406    22017397.712 6  90157556.94006      -985.523 6        41.750    22017397.419 7  90157551.93207      -985.529 7        42.125
G17  22259370.241 7 116973778.43207      1340.607 7        44.938    22259370.789 7  91148402.65107      1044.635 7        43.313    22259371.285 7  91148408.64807      1044.793 7        43.000
G19  22043252.035 7 115838072.77907      3750.223 7        43.188    22043251.633 5  90263431.94405      2922.251 5        34.188
G22  22611150.734 7 118822398.93507      -815.015 7        45.094    22611151.030 5  92588884.83605      -635.071 5        32.281
G23  23624451.445 6 124147328.46206      -375.534 6        40.344    23624452.556 4  96738186.46304      -292.610 4        24.750    23624453.102 6  96738182.46006      -292.557 6        40.719
G24  20295225.962 8 106652130.24208      2572.364 8        48.844    20295227.512 8  83105559.87108      2004.443 8        52.000    20295227.630 7  83105559.87407      2004.441 7        46.406
> 2024 02 29 07 56 32.0000000  0 10
G10  23653361.922 7 124299256.24307      1866.257 7        42.281    23653364.871 4  96856569.16504      1454.225 4        28.500    23653364.696 6  96856565.19206      1454.173 6        41.438
G12  23274774.239 6 122309767.89406      5462.776 6        39.438    23274776.431 5  95306316.77705      4256.704 5        35.906    23274778.004 6  95306324.80206      4256.583 6        39.094
G13  23418553.776 6 123065333.85206     -1899.757 6        38.719    23418558.027 3  95895074.95503     -1480.312 3        22.344
G14  23921728.882 6 125709529.98506     -1516.812 6        38.406    23921732.625 3  97955490.89303     -1181.909 3        23.906    23921733.198 6  97955481.89606     -1181.941 6        40.281
G15  22017637.367 7 115703460.65707     -1264.892 7        44.781    22017638.424 6  90158542.68306      -985.624 6        41.688    22017638.157 7  90158537.66707      -985.632 7        42.000
G17  22259115.213 7 116972438.02407      1340.480 7        44.750    22259115.728 7  91147358.17607      1044.538 7        43.281    22259116.185 7  91147364.17507      1044.468 7        43.000
G19  22042538.511 7 115834322.91907      3749.956 7        43.438    22042538.029 5  90260509.98205      2922.047 5        34.125
G22  22611305.782 7 118823214.13107      -814.988 7        45.094    22611306.196 5  92589520.04705      -635.056 5        32.250
G23  23624522.900 6 124147704.03806      -375.427 6        40.344    23624524.044 4  96738479.12104      -292.540 4        24.531    23624524.721 6  96738475.12706      -292.551 6        40.500
G24  20294736.395 8 106649558.11208      2572.169 8        48.938    20294738.048 8  83103555.61308      2004.289 8        52.063    20294738.288 7  83103555.61807      2004.371 7        46.469
> 2024 02 29 07 56 33.0000000  0 10
G10  23653006.862 7 124297390.20807      1865.695 7        42.031    23653009.722 4  96855115.11304      1453.785 4        28.469    23653009.414 6  96855111.13006      1453.729 6        41.156
G12  23273734.570 6 122304305.16906      5462.697 6        40.125    23273736.909 5  95302060.11605      4256.644 5        35.875    23273738.484 6  95302068.12806      4256.472 6        38.875
G13  23418915.231 6 123067233.63606     -1899.842 6        38.719    23418919.571 3  95896555.30003     -1480.379 3        22.375
G14  23922017.540 6 125711046.67906     -1516.639 6        38.750    23922021.260 4  97956672.72504     -1181.797 4        24.000    23922021.790 6  97956663.73406     -1181.941 6        40.344
G15  22017878.196 7 115704725.56207     -1265.163 7        44.813    22017879.095 6  90159528.31606      -985.831 6        41.594    22017878.836 6  90159523.31106      -985.957 6        41.938
G17  22258860.156 7 116971097.73007      1339.989 7        45.000    22258860.689 7  91146313.78907      1044.146 7        43.281    22258861.179 7  91146319.77207      1044.088 7        43.063
G19  22041825.122 7 115830573.07607      3749.543 7        43.563    22041824.412 5  90257588.02705      2921.717 5        34.125
G22  22611460.823 7 118824029.03907      -815.057 7        44.813    22611461.281 5  92590155.03805      -635.105 5        32.219
G23  23624594.319 6 124148079.59506      -376.049 6        40.594    23624595.577 4  96738771.75704      -293.021 4        24.375    23624596.078 6  96738767.72006      -292.739 6        40.750
G24  20294246.931 8 106646985.98408      2571.771 8        49.000    20294248.584 8  83101551.35708      2003.972 8        52.094    20294248.921 7  83101551.36807      2003.949 7        46.156
> 2024 02 29 07 56 34.0000000  0 10
G10  23652651.688 7 124295524.59607      1866.094 7        42.438    23652654.693 4  96853661.39304      1454.102 4        28.625    23652654.209 7  96853657.38607      1454.161 7        42.031
G12  23272695.321 6 122298842.47706      5463.478 6        39.594    23272697.395 5  95297803.47205      4257.252 5        35.688    23272699.022 6  95297811.48306      4257.135 6        39.094
G13  23419276.722 6 123069133.39106     -1898.960 6        39.156    23419281.070 3  95898035.61903     -1479.709 3        22.625
G14  23922306.293 6 125712563.33106     -1516.161 6        38.750    23922309.849 4  97957854.52904     -1181.421 4        24.063    23922310.183 6  97957845.51106     -1181.062 6        40.250
G15  22018119.096 7 115705990.65107     -1264.484 7        44.594    22018119.807 6  90160514.09506      -985.307 6        41.563    22018119.403 6  90160509.09706      -985.158 6        41.969
G17  22258605.275 7 116969757.79607      1340.535 7        44.750    22258605.721 7  91145269.68007      1044.579 7        43.281    22258606.285 7  91145275.67707      1044.506 7        43.219
G19  22041111.509 7 115826823.59207      3749.970 7        43.531    22041110.866 5  90254666.35105      2922.060 5        34.094
G22  22611615.876 7 118824843.99107      -814.307 7        44.906    22611616.374 5  92590790.06105      -634.522 5        32.219
G23  23624665.855 6 124148455.35106      -375.116 6        40.875    23624667.145 4  96739064.54404      -292.290 4        24.438    23624667.698 6  96739060.53906      -292.291 6        40.594
G24  20293757.495 8 106644414.17908      2572.419 8        48.906    20293759.178 8  83099547.35408      2004.484 8        52.094    20293759.496 7  83099547.36707      2004.488 7        46.250
> 2024 02 29 07 56 35.0000000  0 10
G10  23652296.857 7 124293659.94707      1864.206 7        42.719    23652299.865 4  96852208.41504      1452.640 4        28.906    23652299.343 7  96852204.41607      1452.697 7        42.219
G12  23271655.978 6 122293380.28506      5461.945 6        39.344    23271657.966 5  95293547.22405      4256.056 5        35.594    23271659.663 6  95293555.24806      4256.061 6        38.719
G13  23419638.304 6 123071033.60706     -1900.404 6        39.000    23419642.748 3  95899516.30203     -1480.822 3        22.750
G14  23922594.891 6 125714080.40606     -1517.122 6        39.094    23922598.488 3  97959036.66503     -1182.169 3        23.906    23922598.983 6  97959027.65806     -1182.369 6        40.406
G15  22018360.050 7 115707256.46907     -1266.073 7        44.219    22018360.649 6  90161500.44206      -986.547 6        41.500    22018360.182 6  90161495.43906      -986.534 6        41.906
G17  22258350.480 7 116968418.80507      1338.581 7        44.719    22258350.933 7  91144226.30807      1043.055 7        43.219    22258351.475 7  91144232.30507      1043.061 7        43.125
G19  22040398.309 7 115823075.00807      3748.105 7        43.594    22040397.495 5  90251745.37705      2920.601 5        34.063
G22  22611771.006 7 118825659.51607      -815.759 7        44.781    22611771.584 5  92591425.53505      -635.655 5        32.219
G23  23624737.540 6 124148831.92206      -376.957 6        40.875    23624738.852 4  96739357.96904      -293.726 4        24.344    23624739.306 6  96739353.95806      -293.705 6        40.563
G24  20293268.190 8 106641843.24108      2570.609 8        49.000    20293269.929 8  83097544.02408      2003.076 8        52.125    20293270.222 7  83097544.03307      2003.029 7        46.406
> 2024 02 29 07 56 36.0000000  0 10
G10  23651942.236 7 124291795.89207      1863.608 7        42.344    23651945.127 4  96850755.90104      1452.171 4        29.188    23651944.924 7  96850751.90307      1452.098 7        42.000
G12  23270616.784 6 122287918.28706      5461.819 6        39.313    23270618.569 5  95289291.12605      4255.960 5        35.531    23270620.306 6  95289299.15606      4255.945 6        39.281
G13  23419999.669 6 123072933.95706     -1900.414 6        39.281    23420004.427 3  95900997.08903     -1480.828 3        22.438
G14  23922883.665 6 125715597.56806     -1517.401 6        38.594    23922887.194 3  97960218.86203     -1182.376 3        23.875    23922887.735 6  97960209.85806     -1182.428 6        40.469
G15  22018600.951 7 115708522.63507     -1266.481 7        44.063    22018601.562 6  90162487.06006      -986.858 6        41.344    22018601.048 6  90162482.05806      -986.790 6        41.625
G17  22258095.766 7 116967080.38007      1337.999 7        44.688    22258096.242 7  91143183.37907      1042.599 7        43.219    22258096.722 7  91143189.38107      1042.646 7        43.313
G19  22039685.064 7 115819326.94007      3747.624 7        43.250    22039684.222 5  90248824.80605      2920.232 5        34.031
G22  22611926.218 7 118826475.25907      -816.002 7        44.656    22611926.826 5  92592061.17405      -635.839 5        32.188
G23  23624809.431 6 124149208.90606      -377.266 6        40.406    23624810.644 4  96739651.71704      -293.945 4        24.375    23624811.107 6  96739647.70706      -294.106 6        40.313
G24  20292779.015 8 106639272.79608      2570.043 8        48.844    20292780.778 8  83095541.08108      2002.632 8        52.156    20292781.193 7  83095541.08607      2002.659 7        46.500
> 2024 02 29 07 56 37.0000000  0 10
G10  23651587.637 6 124289931.98306      1864.309 6        41.531    23651590.402 4  96849303.50004      1452.709 4        29.281    23651590.205 7  96849299.49407      1452.814 7        42.031
G12  23269577.479 6 122282456.05506      5462.723 6        39.344    23269579.145 5  95285034.84505      4256.664 5        35.625    23269580.646 6  95285042.82806      4256.947 6        39.594
G13  23420361.068 6 123074834.00106     -1899.180 6        39.500    23420366.011 3  95902477.63803     -1479.881 3        22.656
G14  23923172.345 6 125717114.37806     -1516.096 6        38.781    23923175.882 3  97961400.78503     -1181.366 3        23.844    23923176.344 6  97961391.78306     -1181.388 6        40.469
G15  22018841.626 7 115709788.70107     -1265.376 7        44.188    22018842.453 6  90163473.60306      -986.003 6        41.313    22018841.926 6  90163468.59606      -985.914 6        41.656
G17  22257841.070 7 116965742.06907      1338.843 7        44.594    22257841.579 7  91142140.53907      1043.257 7        43.281    22257842.019 7  91142146.53707      1043.306 7        43.469
G19  22038971.873 7 115815578.92607      3748.594 7        43.313    22038970.976 5  90245904.27505      2920.977 5        34.094
G22  22612081.542 7 118827290.75207      -814.793 7        44.438    22612082.004 5  92592696.62105      -634.896 5        32.250
G23  23624881.135 6 124149585.86306      -376.336 6        40.813    23624882.386 4  96739945.44304      -293.251 4        24.531    23624882.707 6  96739941.43406      -293.272 6        39.750
G24  20292289.846 8 106636702.38308      2570.944 8        48.875    20292291.641 8  83093538.16008      2003.333 8        52.250    20292292.110 7  83093538.18007      2003.236 7        46.406
> 2024 02 29 07 56 38.0000000  0 10
G10  23651233.190 6 124288068.62706      1862.695 6        41.906    23651235.798 4  96847851.53104      1451.460 4        29.438    23651235.657 7  96847847.53007      1451.404 7        42.281
G12  23268538.064 6 122276993.90106      5461.763 6        39.813    23268539.743 5  95280778.62705      4255.923 5        35.719    23268541.328 6  95280786.62806      4256.123 6        39.188
G13  23420722.642 6 123076734.13106     -1900.452 6        39.594    23420727.586 3  95903958.25203     -1480.861 3        22.969
G14  23923460.918 6 125718631.23406     -1517.296 6        38.688    23923464.579 4  97962582.74304     -1182.287 4        24.000    23923465.073 6  97962573.74406     -1182.405 6        40.344
G15  22019082.333 7 115711055.07607     -1266.763 7        44.063    22019083.393 6  90164460.38506      -987.084 6        41.281    22019083.129 6  90164455.39206      -987.095 6        41.375
G17  22257586.408 7 116964404.29207      1337.127 7        44.406    22257587.018 7  91141098.11207      1041.918 7        43.344    22257587.437 7  91141104.11607      1041.844 7        43.531
G19  22038258.661 7 115811831.41307      3747.140 7        43.156    22038257.823 5  90242984.13505      2919.853 5        34.094
G22  22612236.806 7 118828106.40707      -815.980 7        44.469    22612237.241 5  92593332.19105      -635.816 5        32.313
G23  23624952.970 6 124149963.16506      -377.804 6        40.688    23624954.232 4  96740239.44504      -294.379 4        24.688    23624954.203 6  96740235.45006      -294.492 6        40.750
G24  20291800.814 8 106634132.42908      2569.457 8        48.875    20291802.589 8  83091535.59908      2002.174 8        52.281    20291803.074 7  83091535.61307      2002.237 7        46.781
> 2024 02 29 07 56 39.0000000  0 10
G10  23650878.966 6 124286206.10206      1862.373 6        41.750    23650881.354 4  96846400.20504      1451.202 4        29.375    23650881.266 6  96846396.24806      1451.155 6        41.688
G12  23267498.529 6 122271532.20606      5461.594 6        40.094    23267500.404 5  95276522.75505      4255.796 5        35.594    23267501.974 6  95276530.77806      4255.986 6        39.250
G13  23421084.423 6 123078634.64606     -1900.260 6        39.281    23421089.283 3  95905439.16403     -1480.709 3        22.969
G14  23923749.578 6 125720148.43206     -1516.984 6        38.938    23923753.320 3  97963764.96503     -1182.051 3        23.938    23923753.455 6  97963755.95906     -1182.056 6        40.188
G15  22019323.217 7 115712322.09807     -1267.118 7        44.156    22019324.458 6  90165447.66906      -987.354 6        41.125    22019324.105 6  90165442.67306      -987.273 6        41.438
G17  22257331.909 7 116963067.33807      1336.839 7        44.281    22257332.614 7  91140056.32907      1041.699 7        43.250    22257333.047 7  91140062.32307      1041.734 7        43.656
G19  22037545.579 7 115808084.69907      3746.847 7        43.406    22037544.810 5  90240064.61705      2919.622 5        34.031
G22  22612392.153 7 118828922.53907      -815.997 7        44.531    22612392.572 5  92593968.13705      -635.836 5        32.250
G23  23625024.820 6 124150341.21206      -377.910 6        40.406    23625026.162 4  96740534.02104      -294.463 4        24.656    23625026.129 6  96740530.01206      -294.565 6        40.250
G24  20291311.881 8 106631563.23008      2569.157 8        48.875    20291313.688 8  83089533.62708      2001.939 8        52.219    20291314.279 7  83089533.63107      2001.992 7        46.656
> 2024 02 29 07 56 40.0000000  0 10
G10  23650524.792 7 124284343.85107      1862.416 7        42.094    23650526.943 4  96844949.10904      1451.228 4        29.125    23650526.917 6  96844945.12006      1451.304 6        41.438
G12  23266459.354 6 122266070.33806      5462.240 6        39.906    23266461.056 5  95272266.76405      4256.288 5        35.656    23266462.778 6  95272274.78506      4256.252 6        39.406
G13  23421446.373 6 123080534.95006     -1900.057 6        39.938    23421450.952 3  95906919.91503     -1480.564 3        23.000
G14  23924038.313 6 125721665.37906     -1516.592 6        39.250    23924041.955 3  97964947.00003     -1181.771 3        23.875    23924042.299 6  97964937.99006     -1181.689 6        40.563
G15  22019564.395 7 115713589.08207     -1266.639 7        43.844    22019565.510 6  90166434.92906      -986.990 6        41.063    22019565.160 6  90166429.93406      -986.941 6        41.438
G17  22257077.574 7 116961730.60007      1336.996 7        44.219    22257078.251 7  91139014.71107      1041.817 7        43.188    22257078.730 7  91139020.71207      1041.697 7        43.625
G19  22036832.574 7 115804338.16607      3746.745 7        43.688    22036831.836 5  90237145.24205      2919.540 5        34.000
G22  22612547.340 7 118829738.53607      -815.586 7        44.625    22612547.871 5  92594603.97905      -635.524 5        32.219
G23  23625096.681 6 124150719.31506      -377.800 6        40.844    23625098.111 4  96740828.64704      -294.398 4        24.625    23625098.298 6  96740824.63806      -294.497 6        40.063
G24  20290822.989 8 106628994.17108      2569.236 8        49.000    20290824.810 8  83087531.76308      2002.002 8        52.219    20290825.512 7  83087531.77207      2002.009 7        46.781
> 2024 02 29 07 56 41.0000000  0 10
G10  23650170.454 7 124282482.03307      1861.879 7        42.188    23650172.634 4  96843498.34404      1450.814 4        29.313    23650172.694 7  96843494.32307      1450.955 7        42.125
G12  23265420.257 6 122260608.45006      5462.316 6        39.719    23265421.699 5  95268010.74505      4256.351 5        35.781    23265423.314 6  95268018.75406      4256.446 6        39.563
G13  23421808.032 6 123082435.16606     -1899.772 6        39.563    23421812.585 3  95908400.59803     -1480.336 3        23.156
G14  23924326.953 6 125723182.21506     -1516.339 6        38.906    23924330.593 3  97966128.94203     -1181.550 3        23.875    23924330.909 6  97966119.92506     -1181.620 6        40.219
G15  22019805.506 7 115714856.25207     -1266.835 7        44.000    22019806.593 6  90167422.33206      -987.145 6        41.094    22019806.313 6  90167417.32606      -987.202 6        41.594
G17  22256823.134 7 116960394.23007      1336.585 7        44.281    22256823.949 7  91137973.38407      1041.498 7        43.188    22256824.326 7  91137979.37707      1041.477 7        43.688
G19  22036119.817 7 115800591.94607      3746.441 7        43.563    22036118.926 5  90234226.11605      2919.298 5        34.000
G22  22612702.806 7 118830554.54307      -815.707 7        44.531    22612703.157 5  92595239.82405      -635.611 5        32.125
G23  23625168.647 6 124151097.61406      -378.075 6        40.438    23625170.104 4  96741123.42604      -294.619 4        24.531    23625170.438 6  96741119.40806      -294.618 6        40.031
G24  20290334.227 8 106626425.41408      2568.933 8        49.000    20290335.995 8  83085530.13308      2001.768 8        52.281    20290336.795 7  83085530.14007      2001.783 7        46.969
> 2024 02 29 07 56 42.0000000  0 10
G10  23649816.251 6 124280620.84406      1860.810 6        41.500    23649818.459 4  96842048.05904      1450.001 4        29.250    23649818.541 7  96842044.04607      1449.963 7        42.219
G12  23264380.999 6 122255146.81306      5461.481 6        39.844    23264382.377 5  95263754.92205      4255.703 5        35.813    23264384.072 6  95263762.93906      4255.660 6        39.563
G13  23422169.579 6 123084335.57506     -1900.354 6        39.750    23422174.210 3  95909881.42003     -1480.778 3        23.000
G14  23924615.501 6 125724699.20306     -1517.120 6        38.906    23924619.263 3  97967311.00203     -1182.163 3        23.813    23924619.446 6  97967301.99806     -1182.243 6        40.250
G15  22020046.640 7 115716123.82907     -1267.870 7        43.875    22020047.761 6  90168410.04906      -987.949 6        41.031    22020047.673 6  90168405.05806      -987.994 6        41.156
G17  22256568.902 7 116959058.48207      1335.419 7        44.375    22256569.760 7  91136932.53907      1040.587 7        43.125    22256570.117 7  91136938.52907      1040.659 7        43.594
G19  22035407.116 7 115796846.32907      3745.268 7        43.156    22035406.140 5  90231307.45405      2918.397 5        33.969
G22  22612858.073 7 118831370.81707      -816.421 7        44.563    22612858.493 5  92595875.87905      -636.162 5        32.125
G23  23625240.804 6 124151476.40106      -379.150 6        39.969    23625242.160 4  96741418.57804      -295.419 4        24.375    23625242.730 6  96741414.56906      -295.408 6        40.063
G24  20289845.428 8 106623857.20408      2567.903 8        49.063    20289847.278 8  83083528.92908      2000.965 8        52.281    20289848.123 7  83083528.93307      2000.997 7        46.906
> 2024 02 29 07 56 43.0000000  0 10
G10  23649462.273 6 124278760.12306      1860.220 6        41.250    23649464.378 4  96840598.13704      1449.536 4        29.188    23649464.562 7  96840594.13807      1449.519 7        42.156
G12  23263341.621 6 122249685.21306      5461.453 6        39.344    23263343.056 5  95259499.13105      4255.673 5        35.750    23263344.735 6  95259507.14606      4255.521 6        39.688
G13  23422531.148 6 123086236.00706     -1900.771 6        39.969    23422535.835 3  95911362.26503     -1481.111 3        23.063
G14  23924904.132 6 125726216.17006     -1517.142 6        38.813    23924907.934 3  97968493.04603     -1182.179 3        23.531    23924908.219 6  97968484.01806     -1182.134 6        40.344
G15  22020287.856 7 115717391.64707     -1268.067 7        44.031    22020288.982 6  90169397.95806      -988.096 6        40.938    22020289.086 6  90169392.95506      -988.150 6        41.094
G17  22256314.735 7 116957723.17307      1334.876 7        44.313    22256315.656 7  91135892.03707      1040.165 7        43.031    22256316.082 7  91135898.02207      1040.264 7        43.875
G19  22034694.470 7 115793101.12007      3744.629 7        43.250    22034693.439 5  90228389.10905      2917.892 5        33.875
G22  22613013.568 7 118832187.16707      -816.479 7        44.344    22613013.850 5  92596511.99305      -636.214 5        32.063
G23  23625312.622 6 124151855.50206      -379.454 6        40.094    23625314.283 4  96741713.97604      -295.681 4        24.313    23625314.857 6  96741709.97506      -295.692 6        39.719
G24  20289356.900 8 106621289.37408      2567.469 8        48.875    20289358.637 8  83081528.02208      2000.625 8        52.281    20289359.494 7  83081528.02907      2000.621 7        47.094
> 2024 02 29 07 56 44.0000000  0 10
G10  23649108.384 6 124276899.84206      1859.596 6        40.938    23649110.382 4  96839148.56104      1449.042 4        29.094    23649110.624 6  96839144.54806      1449.136 6        41.969
G12  23262302.197 6 122244223.64806      5461.259 6        39.750    23262303.743 5  95255243.36805      4255.526 5        35.813    23262305.247 6  95255251.38406      4255.593 6        39.688
G13  23422892.925 6 123088136.38006     -1900.780 6        39.781    23422897.437 3  95912843.06703     -1481.125 3        23.000
G14  23925192.747 6 125727733.05106     -1517.299 6        39.313    23925196.630 3  97969675.02503     -1182.293 3        23.531    23925196.801 6  97969666.01306     -1182.303 6        40.313
G15  22020529.229 7 115718659.65707     -1268.554 7        44.125    22020530.235 6  90170386.01506      -988.480 6        40.906    22020530.309 6  90170381.00106      -988.441 6        41.563
G17  22256060.705 7 116956388.27407      1334.246 7        44.469    22256061.623 7  91134851.85507      1039.674 7        43.063    22256062.025 7  91134857.85807      1039.636 7        43.781
G19  22033981.746 7 115789356.24107      3744.260 7        43.063    22033980.797 5  90225471.02305      2917.607 5        33.813
G22  22613168.950 7 118833003.59407      -816.892 7        44.406    22613169.217 5  92597148.16705      -636.532 5        32.063
G23  23625385.015 6 124152234.84606      -379.925 6        39.781    23625386.468 4  96742009.57004      -296.040 4        24.375    23625386.847 6  96742005.56806      -295.982 6        40.094
G24  20288868.415 8 106618721.87908      2566.951 8        48.750    20288870.054 8  83079527.37508      2000.223 8        52.250    20288870.922 7  83079527.38307      2000.228 7        47.094
> 2024 02 29 07 56 45.0000000  0 10
G10  23648754.195 6 124275040.16206      1860.070 6        41.188    23648756.511 4  96837699.45704      1449.414 4        29.031    23648756.835 7  96837695.46307      1449.341 7        42.500
G12  23261262.780 6 122238762.28506      5461.824 6        39.813    23261264.480 5  95250987.75905      4255.963 5        35.906    23261265.864 6  95250995.77506      4255.957 6        39.906
G13  23423254.577 6 123090036.94506     -1900.182 6        39.844    23423259.075 3  95914324.02303     -1480.658 3        22.969
G14  23925481.295 6 125729250.05506     -1516.625 6        38.875    23925485.300 3  97970857.10003     -1181.772 3        23.406    23925485.332 6  97970848.07906     -1181.582 6        40.219
G15  22020770.590 7 115719928.03807     -1267.981 7        43.906    22020771.560 6  90171374.36206      -988.031 6        40.906    22020771.584 6  90171369.35306      -987.874 6        41.531
G17  22255806.740 7 116955053.97407      1334.597 7        44.250    22255807.711 7  91133812.13807      1039.951 7        43.031    22255808.223 7  91133818.14307      1039.951 7        43.875
G19  22033269.327 7 115785611.94907      3744.556 7        43.063    22033268.284 5  90222553.39405      2917.836 5        33.813
G22  22613324.450 7 118833820.23607      -816.169 7        44.313    22613324.606 5  92597784.51105      -635.971 5        32.000
G23  23625457.279 6 124152614.67806      -379.572 6        39.875    23625458.707 4  96742305.54404      -295.771 4        24.344    23625459.090 6  96742301.50806      -295.508 6        39.719
G24  20288379.978 8 106616154.90508      2567.298 8        48.750    20288381.574 8  83077527.13308      2000.492 8        52.250    20288382.468 7  83077527.13707      2000.506 7        47.031
> 2024 02 29 07 56 46.0000000  0 10
G10  23648400.263 6 124273180.54206      1859.236 6        40.969    23648402.645 4  96836250.40104      1448.754 4        29.188    23648403.052 7  96836246.40307      1448.714 7        42.375
G12  23260223.668 6 122233300.52906      5461.561 6        39.969    23260225.150 5  95246731.85205      4255.759 5        35.969    23260226.407 6  95246739.86706      4255.678 6        39.969
G13  23423616.229 6 123091937.02606     -1900.343 6        40.094    23423620.677 3  95915804.60703     -1480.783 3        23.094
G14  23925769.794 6 125730766.56206     -1516.897 6        39.188    23925773.935 3  97972038.78803     -1181.976 3        23.313    23925773.973 6  97972029.78706     -1181.969 6        39.938
G15  22021012.089 7 115721196.23407     -1268.506 7        44.031    22021012.849 6  90172362.56106      -988.447 6        40.844    22021013.018 6  90172357.55706      -988.494 6        41.625
G17  22255552.861 7 116953719.67107      1333.788 7        44.375    22255553.794 7  91132772.41907      1039.313 7        42.969    22255554.243 7  91132778.42807      1039.271 7        43.813
G19  22032556.952 7 115781867.61807      3743.819 7        42.938    22032555.735 5  90219635.73505      2917.260 5        33.719
G22  22613479.845 7 118834636.53807      -816.717 7        44.156    22613479.941 5  92598420.58705      -636.399 5        31.875
G23  23625529.439 6 124152994.31506      -379.945 6        39.844    23625530.959 4  96742601.35604      -296.049 4        24.438    23625531.322 6  96742597.35806      -296.305 6        40.063
G24  20287891.393 8 106613587.86008      2566.574 8        48.781    20287893.085 8  83075526.83908      1999.928 8        52.250    20287893.840 7  83075526.84007      1999.896 7        47.031
> 2024 02 29 07 56 47.0000000  0 10
G10  23648046.227 6 124271321.29806      1858.803 6        40.563    23648048.836 4  96834801.63604      1448.421 4        29.313    23648049.305 7  96834797.64707      1448.270 7        42.750
G12  23259184.335 6 122227838.75906      5461.405 6        39.563    23259185.820 6  95242475.92606      4255.644 6        36.125    23259187.151 6  95242483.93406      4255.716 6        39.656
G13  23423977.832 6 123093837.05206     -1900.271 6        39.906    23423982.261 3  95917285.13603     -1480.723 3        23.250
G14  23926058.356 6 125732282.97206     -1516.734 6        39.219    23926062.520 3  97973220.39603     -1181.875 3        23.469    23926062.477 6  97973211.39206     -1181.741 6        40.156
G15  22021253.592 7 115722464.56307     -1268.900 7        43.656    22021254.173 6  90173350.86506      -988.752 6        40.875    22021254.169 6  90173345.86106      -988.691 6        41.500
G17  22255299.117 7 116952385.71807      1333.359 7        44.438    22255299.944 7  91131732.97307      1038.981 7        43.063    22255300.358 7  91131738.97207      1039.008 7        43.875
G19  22031844.456 7 115778123.58407      3743.600 7        42.781    22031843.245 5  90216718.30505      2917.090 5        33.875
G22  22613635.233 7 118835452.80707      -816.588 7        44.031    22613635.267 5  92599056.63505      -636.300 5        31.969
G23  23625601.650 6 124153374.17306      -380.333 6        39.594    23625603.266 4  96742897.34904      -296.364 4        24.625    23625603.706 6  96742893.36506      -296.447 6        39.906
G24  20287402.911 8 106611021.09008      2566.349 8        48.563    20287404.649 8  83073526.75708      1999.753 8        52.313    20287405.365 7  83073526.75907      1999.719 7        47.063
> 2024 02 29 07 56 48.0000000  0 10
G10  23647692.502 6 124269462.69106      1859.143 6        40.781    23647695.153 4  96833353.36904      1448.681 4        29.375    23647695.715 7  96833349.35407      1448.797 7        42.625
G12  23258145.315 6 122222377.15506      5462.426 6        39.688    23258146.507 6  95238220.13306      4256.436 6        36.344    23258147.727 6  95238228.15506      4256.339 6        39.813
G13  23424339.406 6 123095737.24506     -1899.423 6        39.844    23424343.850 3  95918765.79803     -1480.063 3        23.344
G14  23926347.000 6 125733799.49606     -1515.784 6        39.031    23926351.087 3  97974402.09403     -1181.119 3        23.594    23926350.996 6  97974393.08506     -1181.218 6        40.125
G15  22021495.078 7 115723733.26107     -1267.997 7        43.813    22021495.560 6  90174339.46206      -988.039 6        40.938    22021495.587 6  90174334.46506      -988.107 6        41.688
G17  22255045.411 7 116951052.37007      1333.923 7        44.469    22255046.216 7  91130693.99907      1039.424 7        43.125    22255046.547 7  91130700.00007      1039.448 7        44.094
G19  22031131.915 7 115774380.13007      3743.935 7        42.688    22031130.862 5  90213801.33105      2917.350 5        33.938
G22  22613790.479 7 118836269.33507      -815.738 7        44.125    22613790.647 5  92599692.88505      -635.634 5        32.031
G23  23625674.055 6 124153754.50306      -379.749 6        40.125    23625675.608 4  96743193.71704      -295.888 4        24.781    23625676.185 6  96743189.70006      -295.896 6        39.719
G24  20286914.535 8 106608454.84408      2566.842 8        48.563    20286916.308 8  83071527.08408      2000.139 8        52.406    20286916.983 7  83071527.09307      2000.056 7        47.156
> 2024 02 29 07 56 49.0000000  0 10
G10  23647338.835 6 124267605.01306      1857.134 6        40.656    23647341.667 4  96831905.82604      1447.126 4        29.438    23647342.203 7  96831901.83507      1447.036 7        42.844
G12  23257105.942 6 122216916.13006      5460.731 6        39.531    23257107.320 6  95233964.79006      4255.108 6        36.344    23257108.443 6  95233972.80406      4255.112 6        40.313
G13  23424700.964 6 123097637.89006     -1901.063 6        40.125    23424705.528 3  95920246.81703     -1481.340 3        23.531
G14  23926635.689 6 125735316.44806     -1517.239 6        38.844    23926639.712 3  97975584.12903     -1182.261 3        23.500    23926639.828 6  97975575.12606     -1182.379 6        40.156
G15  22021736.617 7 115725002.68607     -1269.723 7        44.031    22021737.082 6  90175328.62106      -989.395 6        41.031    22021737.252 6  90175323.61306      -989.457 6        41.813
G17  22254791.893 7 116949719.93607      1331.912 7        44.375    22254792.661 7  91129655.73807      1037.858 7        43.188    22254792.980 7  91129661.74407      1037.845 7        43.969
G19  22030419.727 7 115770637.53907      3742.041 7        42.406    22030418.667 5  90210885.02705      2915.872 5        34.000
G22  22613945.935 7 118837086.42307      -817.430 7        43.906    22613946.148 5  92600329.57705      -636.957 5        32.031
G23  23625746.513 6 124154135.58406      -381.343 6        40.094    23625748.110 4  96743490.65204      -297.139 4        24.844    23625748.659 6  96743486.64106      -297.316 6        38.844
G24  20286426.232 8 106605889.45308      2564.873 8        48.594    20286428.136 8  83069528.07708      1998.603 8        52.469    20286428.627 7  83069528.08307      1998.606 7        47.375
> 2024 02 29 07 56 50.0000000  0 10
G10  23646985.420 6 124265747.23806      1858.172 6        40.500    23646988.141 4  96830458.20604      1447.929 4        29.469    23646988.761 7  96830454.19607      1447.925 7        42.875
G12  23256066.822 6 122211454.54406      5461.987 6        40.031    23256068.030 6  95229709.01006      4256.089 6        36.438    23256068.934 6  95229717.01506      4256.118 6        40.219
G13  23425062.632 6 123099537.96706     -1899.762 6        40.125    23425067.095 3  95921727.39203     -1480.322 3        23.875
G14  23926924.156 6 125736832.78306     -1515.842 6        38.844    23926928.230 3  97976765.68303     -1181.163 3        23.500    23926928.443 6  97976756.67506     -1181.315 6        40.063
G15  22021977.967 7 115726271.73907     -1268.726 7        44.188    22021978.549 6  90176317.48906      -988.617 6        41.125    22021978.800 6  90176312.47606      -988.551 6        41.719
G17  22254538.496 7 116948387.35507      1332.782 7        44.031    22254539.076 7  91128617.36307      1038.533 7        43.219    22254539.506 7  91128623.36207      1038.633 7        43.781
G19  22029707.521 7 115766894.76707      3742.946 7        42.500    22029706.422 5  90207968.58205      2916.579 5        34.031
G22  22614101.218 7 118837902.98607      -816.151 7        43.906    22614101.546 5  92600965.85505      -635.961 5        32.063
G23  23625818.913 6 124154516.38506      -380.276 6        40.344    23625820.555 4  96743787.37404      -296.302 4        24.875    23625821.084 6  96743783.36506      -296.470 6        38.906
G24  20285937.993 8 106603323.83808      2565.883 8        48.531    20285939.920 8  83067528.89908      1999.391 8        52.500    20285940.369 7  83067528.90407      1999.365 7        47.281
> 2024 02 29 07 56 51.0000000  0 10
G10  23646631.896 6 124263889.97506      1857.000 6        40.781    23646634.726 4  96829010.98704      1447.021 4        29.375    23646635.378 7  96829006.98307      1446.969 7        43.219
G12  23255027.717 6 122205993.07306      5461.281 6        40.313    23255028.758 6  95225453.32106      4255.537 6        36.594    23255029.698 6  95225461.33206      4255.627 6        40.375
G13  23425424.205 6 123101438.09206     -1900.270 6        39.813    23425428.670 3  95923207.99703     -1480.724 3        23.781
G14  23927212.923 6 125738349.12406     -1516.384 6        38.750    23927216.793 3  97977947.23803     -1181.592 3        23.406    23927217.043 6  97977938.23606     -1181.717 6        40.281
G15  22022219.464 7 115727541.08407     -1269.477 7        44.344    22022220.075 6  90177306.58506      -989.198 6        41.188    22022220.402 6  90177301.58006      -989.177 6        41.688
G17  22254284.925 7 116947055.28107      1331.907 7        44.344    22254285.579 7  91127579.38207      1037.850 7        43.219    22254286.045 7  91127585.37607      1037.782 7        43.813
G19  22028995.251 7 115763152.46407      3742.080 7        42.781    22028994.262 5  90205052.50405      2915.900 5        34.031
G22  22614256.650 7 118838719.70007      -816.725 7        43.844    22614256.961 5  92601602.25505      -636.408 5        32.063
G23  23625891.593 6 124154897.55006      -381.278 6        40.219    23625893.036 4  96744084.37704      -297.092 4        24.844    23625893.466 6  96744080.35606      -297.243 6        39.000
G24  20285449.840 8 106600758.64908      2564.938 8        48.531    20285451.789 8  83065530.04708      1998.652 8        52.531    20285452.256 7  83065530.04907      1998.695 7        47.250
> 2024 02 29 07 56 52.0000000  0 10
G10  23646278.805 6 124262033.53206      1856.138 6        41.156    23646281.477 4  96827564.40004      1446.336 4        29.281    23646282.105 7  96827560.39407      1446.278 7        43.156
G12  23253988.505 6 122200531.98206      5460.934 6        40.844    23253989.566 6  95221197.92906      4255.271 6        36.750    23253990.511 6  95221205.93406      4255.145 6        40.125
G13  23425785.840 6 123103338.55206     -1900.915 6        40.219    23425790.344 3  95924688.86503     -1481.222 3        23.563
G14  23927501.430 6 125739865.75706     -1516.780 6        39.031    23927505.423 3  97979129.02403     -1181.897 3        23.188    23927505.811 6  97979120.03706     -1181.973 6        40.125
G15  22022461.192 7 115728810.96907     -1270.256 7        44.438    22022461.708 6  90178296.10606      -989.812 6        41.156    22022461.898 6  90178291.10706      -989.853 6        41.594
G17  22254031.557 7 116945723.95207      1330.878 7        44.594    22254032.217 7  91126541.97907      1037.047 7        43.156    22254032.664 7  91126547.99707      1036.941 7        43.719
G19  22028283.178 7 115759410.88707      3741.136 7        43.375    22028282.224 5  90202136.99105      2915.161 5        33.969
G22  22614412.142 7 118839536.82707      -817.439 7        43.906    22614412.475 5  92602238.97305      -636.966 5        32.031
G23  23625964.332 6 124155279.29306      -381.963 6        40.313    23625965.597 4  96744381.83904      -297.625 4        24.969    23625965.891 6  96744377.82906      -297.628 6        39.344
G24  20284961.769 8 106598194.15508      2564.070 8        49.094    20284963.787 8  83063531.73708      1997.976 8        52.500    20284964.268 7  83063531.74307      1997.949 7        47.313
> 2024 02 29 07 56 53.0000000  0 10
G10  23645925.705 6 124260177.67306      1855.155 6        41.313    23645928.330 4  96826118.27404      1445.572 4        29.344    23645929.049 7  96826114.26607      1445.559 7        43.438
G12  23252949.453 6 122195071.05506      5460.497 6        40.563    23252950.415 6  95216942.66106      4254.931 6        36.875    23252951.551 6  95216950.67506      4254.954 6        40.719
G13  23426147.309 6 123105239.13006     -1900.982 6        40.563    23426152.009 3  95926169.82903     -1481.280 3        23.594
G14  23927790.012 6 125741382.50406     -1517.101 6        38.688    23927794.093 3  97980310.90203     -1182.168 3        23.250    23927794.623 6  97980301.90206     -1182.069 6        40.156
G15  22022702.884 7 115730081.23107     -1270.726 7        44.531    22022703.404 6  90179285.91706      -990.175 6        41.188    22022703.719 6  90179280.92106      -990.244 6        41.531
G17  22253778.406 7 116944393.20607      1330.134 7        44.719    22253778.980 7  91125505.03607      1036.467 7        43.219    22253779.497 7  91125511.03807      1036.560 7        43.781
G19  22027571.302 7 115755669.82407      3740.493 7        43.125    22027570.283 5  90199221.87805      2914.666 5        34.031
G22  22614567.735 7 118840354.15407      -817.680 7        44.031    22614568.012 5  92602875.84705      -637.151 5        32.031
G23  23626037.178 6 124155661.49606      -382.797 6        40.281    23626038.314 4  96744679.65704      -298.286 4        24.938    23626038.714 6  96744675.64706      -298.311 6        39.531
G24  20284473.901 8 106595630.15108      2563.477 8        49.063    20284475.884 8  83061533.81208      1997.514 8        52.531    20284476.360 7  83061533.81507      1997.560 7        47.500
> 2024 02 29 07 56 54.0000000  0 10
G10  23645572.859 6 124258322.06706      1855.756 6        41.500    23645575.224 4  96824672.34504      1446.035 4        29.469    23645576.166 7  96824668.34407      1446.009 7        43.656
G12  23251910.267 6 122189609.97906      5461.612 6        41.094    23251911.228 6  95212687.28006      4255.803 6        37.094    23251912.125 6  95212695.29206      4255.796 6        40.906
G13  23426508.930 6 123107139.48406     -1899.830 6        40.469    23426513.634 3  95927650.61303     -1480.380 3        23.844
G14  23928078.431 6 125742898.97306     -1516.008 6        39.094    23928082.674 3  97981492.55603     -1181.304 3        23.125    23928082.951 6  97981483.55706     -1181.260 6        40.313
G15  22022944.654 7 115731351.49707     -1269.927 7        44.719    22022945.090 6  90180275.73406      -989.553 6        41.219    22022945.245 6  90180270.71506      -989.377 6        41.688
G17  22253525.127 7 116943062.68007      1330.789 7        44.781    22253525.775 7  91124468.26107      1036.979 7        43.281    22253526.297 7  91124474.26507      1037.063 7        43.813
G19  22026859.484 7 115751928.96907      3741.093 7        43.281    22026858.396 5  90196306.92505      2915.135 5        34.125
G22  22614723.411 7 118841171.37307      -816.809 7        43.938    22614723.530 5  92603512.63605      -636.470 5        32.031
G23  23626109.993 6 124156043.75606      -382.008 6        40.406    23626110.992 4  96744977.51604      -297.675 4        25.031    23626111.812 6  96744973.52806      -297.744 6        39.719
G24  20283986.049 8 106593066.30408      2564.173 8        49.281    20283988.008 8  83059536.00908      1998.057 8        52.594    20283988.503 7  83059536.01707      1998.075 7        47.500
> 2024 02 29 07 56 55.0000000  0 10
G10  23645220.027 6 124256466.83306      1854.157 6        41.188    23645222.194 4  96823226.70704      1444.799 4        29.438    23645223.176 7  96823222.70107      1444.787 7        43.438
G12  23250871.131 6 122184148.86906      5460.220 6        40.563    23250872.031 6  95208431.86506      4254.717 6        37.156    23250872.881 6  95208439.86906      4254.758 6        40.656
G13  23426870.469 6 123109039.76606     -1900.994 6        40.063    23426875.213 3  95929131.34703     -1481.285 3        23.625
G14  23928366.710 6 125744415.30906     -1517.104 6        38.563    23928371.214 3  97982674.11003     -1182.151 3        23.250    23928371.574 6  97982665.12006     -1182.318 6        40.156
G15  22023186.357 7 115732621.90607     -1271.347 7        44.625    22023186.808 6  90181265.66106      -990.656 6        41.281    22023187.023 6  90181260.65506      -990.675 6        41.750
G17  22253272.027 7 116941732.50507      1329.146 7        44.375    22253272.645 7  91123431.76007      1035.700 7        43.281    22253273.249 7  91123437.75607      1035.790 7        43.750
G19  22026147.802 7 115748188.39907      3739.475 7        42.906    22026146.554 5  90193392.19805      2913.872 5        34.063
G22  22614878.643 7 118841988.54007      -817.993 7        43.563    22614879.062 5  92604149.38705      -637.398 5        31.938
G23  23626183.221 6 124156426.24406      -383.438 6        39.531    23626183.763 4  96745275.55804      -298.787 4        25.000    23626184.902 6  96745271.53806      -298.757 6        39.781
G24  20283498.283 8 106590502.74008      2562.445 8        48.969    20283500.181 8  83057538.42608      1996.712 8        52.563    20283500.609 7  83057538.42707      1996.775 7        47.500
> 2024 02 29 07 56 56.0000000  0 10
G10  23644867.212 6 124254612.50006      1854.290 6        41.219    23644869.361 4  96821781.77004      1444.905 4        29.594    23644870.158 7  96821777.76707      1444.859 7        43.531
G12  23249832.125 6 122178688.21606      5460.808 6        40.125    23249832.911 6  95204176.81306      4255.173 6        37.250    23249833.926 6  95204184.82506      4255.091 6        40.844
G13  23427232.162 6 123110940.47106     -1900.410 6        39.875    23427236.936 3  95930612.40603     -1480.835 3        23.594
G14  23928655.254 6 125745932.06406     -1516.710 6        38.344    23928659.871 3  97983855.99103     -1181.853 3        23.156    23928659.905 6  97983846.98406     -1181.828 6        40.188
G15  22023428.285 7 115733892.95507     -1270.938 7        44.594    22023428.665 6  90182256.08606      -990.340 6        41.406    22023428.966 6  90182251.07706      -990.353 6        41.813
G17  22253019.124 7 116940403.18507      1329.383 7        44.188    22253019.681 7  91122395.92307      1035.886 7        43.344    22253020.194 7  91122401.92307      1035.906 7        43.844
G19  22025436.274 7 115744448.67107      3739.660 7        42.938    22025434.882 5  90190478.12505      2914.015 5        34.063
G22  22615034.132 7 118842806.24607      -817.544 7        43.688    22615034.684 5  92604786.55705      -637.046 5        31.875
G23  23626256.158 6 124156809.42406      -383.083 6        40.000    23626256.664 4  96745574.13604      -298.496 4        25.125    23626258.035 6  96745570.12306      -298.512 6        39.906
G24  20283010.709 8 106587939.96608      2562.818 8        48.781    20283012.510 8  83055541.45908      1997.002 8        52.625    20283012.871 7  83055541.46207      1996.967 7        47.625
> 2024 02 29 07 56 57.0000000  0 10
G10  23644514.472 6 124252758.16106      1853.313 6        41.281    23644516.514 4  96820336.82604      1444.140 4        29.688    23644517.158 7  96820332.82807      1444.072 7        43.531
G12  23248792.827 6 122173227.14606      5460.464 6        40.375    23248793.706 6  95199921.43306      4254.917 6        37.281    23248794.630 6  95199929.44706      4254.684 6        40.938
G13  23427593.561 6 123112840.70106     -1901.088 6        40.156    23427598.548 3  95932093.10103     -1481.355 3        23.625
G14  23928944.135 6 125747448.29406     -1517.140 6        37.969    23928948.416 3  97985037.47003     -1182.174 3        23.219    23928948.500 6  97985028.42706     -1182.028 6        39.906
G15  22023670.134 7 115735163.76407     -1271.661 7        44.625    22023670.473 6  90183246.32206      -990.903 6        41.469    22023670.755 6  90183241.32006      -990.981 6        41.719
G17  22252766.103 7 116939073.84607      1328.239 7        44.031    22252766.712 7  91121360.07207      1034.988 7        43.313    22252767.105 7  91121366.07307      1034.991 7        43.781
G19  22024724.528 7 115740708.86307      3738.743 7        43.188    22024723.197 5  90187563.99005      2913.308 5        34.094
G22  22615189.799 7 118843623.54407      -818.088 7        43.438    22615190.225 5  92605423.40705      -637.467 5        31.844
G23  23626329.145 6 124157192.43206      -383.915 6        39.688    23626329.520 4  96745872.57604      -299.152 4        25.188    23626331.045 6  96745868.55906      -299.134 6        40.094
G24  20282523.122 8 106585377.09108      2561.913 8        48.719    20282524.821 8  83053544.41108      1996.295 8        52.625    20282525.226 7  83053544.41707      1996.227 7        47.656
> 2024 02 29 07 56 58.0000000  0 10
G10  23644161.852 6 124250904.80306      1853.849 6        41.344    23644163.859 4  96818892.65004      1444.569 4        29.656    23644164.473 7  96818888.66007      1444.434 7        43.188
G12  23247753.657 6 122167766.68206      5460.982 6        40.344    23247754.617 6  95195666.52606      4255.315 6        37.281    23247755.291 6  95195674.52206      4255.297 6        40.719
G13  23427955.102 6 123114741.46406     -1900.162 6        40.063    23427960.257 3  95933574.20603     -1480.642 3        23.719
G14  23929232.620 6 125748964.97406     -1515.926 6        37.938    23929236.978 3  97986219.29103     -1181.232 3        23.125    23929237.070 6  97986210.27606     -1181.307 6        40.000
G15  22023912.148 7 115736435.32207     -1271.030 7        44.469    22023912.428 6  90184237.14606      -990.412 6        41.469    22023912.989 6  90184232.13806      -990.412 6        41.781
G17  22252513.278 7 116937745.46307      1328.786 7        44.125    22252513.922 7  91120324.96607      1035.422 7        43.281    22252514.237 7  91120330.96907      1035.384 7        43.875
G19  22024013.055 7 115736969.95407      3739.421 7        43.531    22024011.681 5  90184650.55605      2913.830 5        34.063
G22  22615345.373 7 118844441.44107      -817.234 7        43.563    22615345.877 5  92606060.72805      -636.804 5        31.875
G23  23626402.052 6 124157576.23506      -383.345 6        40.156    23626402.550 4  96746171.63804      -298.722 4        25.313    23626403.788 6  96746167.63706      -298.733 6        40.000
G24  20282035.593 8 106582815.08008      2562.525 8        48.875    20282037.294 8  83051548.03808      1996.776 8        52.594    20282037.696 7  83051548.04507      1996.771 7        47.531
> 2024 02 29 07 56 59.0000000  0 10
G10  23643809.239 6 124249051.97406      1852.709 6        41.344    23643811.308 4  96817448.88804      1443.678 4        29.625    23643811.573 7  96817444.87907      1443.667 7        43.469
G12  23246714.371 6 122162306.25506      5460.537 6        40.281    23246715.538 6  95191411.64506      4254.965 6        37.219    23246716.039 6  95191419.64406      4254.902 6        40.656
G13  23428316.837 6 123116642.22506     -1900.733 6        39.875    23428321.917 3  95935055.31203     -1481.090 3        23.688
G14  23929521.256 6 125750481.66306     -1516.539 6        38.250    23929525.590 3  97987401.11303     -1181.712 3        23.000    23929525.433 6  97987392.10406     -1181.873 6        39.750
G15  22024154.066 7 115737707.13307     -1271.945 7        44.688    22024154.432 6  90185228.16606      -991.120 6        41.438    22024155.210 6  90185223.16006      -991.115 6        41.938
G17  22252260.623 7 116936417.54207      1327.797 7        44.250    22252261.218 7  91119290.22207      1034.651 7        43.219    22252261.532 7  91119296.21507      1034.665 7        43.469
G19  22023301.830 7 115733231.51207      3738.319 7        43.531    22023300.250 5  90181737.48605      2912.976 5        33.969
G22  22615501.165 7 118845259.45007      -817.934 7        43.500    22615501.552 5  92606698.13205      -637.343 5        31.750
G23  23626475.014 6 124157960.38706      -384.195 6        40.188    23626475.657 4  96746470.97804      -299.371 4        25.344    23626476.883 6  96746466.95306      -299.435 6        40.281
G24  20281548.239 8 106580253.48008      2561.470 8        48.813    20281549.847 8  83049551.98708      1995.956 8        52.531    20281550.186 7  83049551.99007      1995.962 7        47.719
> 2024 02 29 07 57  0.0000000  0 10
G10  23643456.698 6 124247199.80206      1852.570 6        41.375    23643458.846 4  96816005.63304      1443.570 4        29.688    23643459.197 7  96816001.62707      1443.446 7        43.250
G12  23245675.177 6 122156846.12106      5460.573 6        40.719    23245676.520 6  95187156.99306      4254.989 6        37.219    23245676.975 6  95187165.01006      4255.044 6        40.531
G13  23428678.739 6 123118543.22706     -1900.452 6        39.938    23428683.605 3  95936536.60603     -1480.858 3        23.656
G14  23929809.670 6 125751998.55106     -1516.360 6        38.438    23929814.184 3  97988583.08503     -1181.563 3        23.094    23929814.230 6  97988574.08706     -1181.604 6        39.688
G15  22024396.216 7 115738979.39807     -1271.897 7        44.656    22024396.534 6  90186219.53706      -991.085 6        41.563    22024397.139 6  90186214.52106      -991.041 6        41.969
G17  22252007.968 7 116935090.28707      1327.529 7        44.375    22252008.643 7  91118255.99607      1034.444 7        43.219    22252008.873 7  91118261.99207      1034.454 7        43.375
G19  22022590.521 7 115729493.67607      3738.141 7        43.813    22022588.940 5  90178824.88605      2912.840 5        34.063
G22  22615656.933 7 118846077.75207      -817.769 7        43.406    22615657.277 5  92607335.76705      -637.213 5        31.688
G23  23626548.280 6 124158345.03406      -384.375 6        40.188    23626548.817 4  96746770.70004      -299.512 4        25.406    23626549.994 6  96746766.68206      -299.504 6        40.031
G24  20281060.888 8 106577692.46908      2561.329 8        49.000    20281062.507 8  83047556.39108      1995.842 8        52.563    20281062.791 7  83047556.39907      1995.853 7        47.531
> 2024 02 29 07 57  1.0000000  0 10
G10  23643104.245 6 124245347.99006      1851.594 6        41.406    23643106.441 4  96814562.66304      1442.799 4        29.625    23643106.897 7  96814558.63707      1442.879 7        43.531
G12  23244635.898 6 122151385.90106      5460.346 6        41.094    23244637.485 6  95182902.28106      4254.818 6        37.156    23244638.199 6  95182910.29306      4254.830 6        40.469
G13  23429040.778 6 123120444.07806     -1900.604 6        39.406    23429045.247 3  95938017.78303     -1480.969 3        23.344
G14  23930098.207 6 125753515.24606     -1516.639 6        38.438    23930102.796 3  97989764.91303     -1181.797 3        23.063    23930102.835 6  97989755.92206     -1181.791 6        39.688
G15  22024638.259 7 115740251.74507     -1272.331 7        44.500    22024638.650 6  90187210.97406      -991.422 6        41.563    22024639.528 6  90187205.96306      -991.452 6        41.719
G17  22251755.562 7 116933763.33507      1326.778 7        44.406    22251756.126 7  91117222.00507      1033.854 7        43.156    22251756.475 7  91117228.00107      1033.886 7        43.406
G19  22021879.406 7 115725756.10007      3737.479 7        43.594    22021877.675 5  90175912.49105      2912.325 5        34.000
G22  22615812.486 7 118846896.00407      -818.159 7        43.219    22615812.997 5  92607973.36305      -637.525 5        31.563
G23  23626621.313 6 124158729.83706      -384.933 6        40.531    23626622.058 4  96747070.54604      -299.942 4        25.375    23626623.035 6  96747066.53006      -299.861 6        39.719
G24  20280573.611 8 106575131.68708      2560.723 8        48.844    20280575.212 8  83045560.97708      1995.367 8        52.500    20280575.485 7  83045560.97907      1995.446 7        47.500
> 2024 02 29 07 57  2.0000000  0 10
G10  23642751.839 6 124243496.56606      1851.385 6        41.219    23642754.149 4  96813119.99604      1442.640 4        29.625    23642754.614 7  96813115.99607      1442.505 7        43.719
G12  23243596.796 6 122145925.69106      5460.264 6        41.219    23243598.441 6  95178647.57606      4254.750 6        37.313    23243599.310 6  95178655.57606      4254.837 6        40.625
G13  23429402.763 6 123122344.92906     -1900.848 6        38.938    23429406.912 3  95939498.95903     -1481.170 3        23.406
G14  23930386.793 6 125755031.86106     -1516.373 6        38.469    23930391.453 3  97990946.68503     -1181.604 3        22.875    23930391.493 6  97990937.69606     -1181.605 6        39.844
G15  22024880.465 7 115741524.26407     -1272.462 7        44.563    22024880.802 6  90188202.54406      -991.526 6        41.594    22024881.577 7  90188197.53907      -991.587 7        42.156
