     3.04           OBSERVATION DATA    G                   RINEX VERSION / TYPE
sbf2rin-15.9.0                          20240324 110233 UTC PGM / RUN BY / DATE 
ALT3                                                        MARKER NAME         
Unknown                                                     MARKER NUMBER       
Unknown             Unknown                                 OBSERVER / AGENCY   
3058190             SEPT ALTUS NR3      1.3.3-r81487        REC # / TYPE / VERS 
Altus NR3           SEPALTUS_NR3    NONE                    ANT # / TYPE        
  3509700.7677   779239.5142  5250781.7999                  APPROX POSITION XYZ 
        0.0000        0.0000        0.0000                  ANTENNA: DELTA H/E/N
G   12 C1C L1C D1C S1C C2W L2W D2W S2W C2L L2L D2L S2L      SYS / # / OBS TYPES 
SEPTENTRIO RECEIVERS OUTPUT ALIGNED CARRIER PHASES.         COMMENT             
NO FURTHER PHASE SHIFT APPLIED IN THE RINEX ENCODER.        COMMENT             
G L1C                                                       SYS / PHASE SHIFT   
G L2W                                                       SYS / PHASE SHIFT   
G L2L  0.00000                                              SYS / PHASE SHIFT   
     1.000                                                  INTERVAL            
  2024     2    29     8    19   48.0000000     GPS         TIME OF FIRST OBS   
  2024     2    29     8    37   17.0000000     GPS         TIME OF LAST OBS    
    42                                                      # OF SATELLITES     
DBHZ                                                        SIGNAL STRENGTH UNIT
    18                                                      LEAP SECONDS        
                                                            END OF HEADER       
> 2024 02 29 08 19 48.0000000  0 12
G01                                                                                                                                  23952495.430 5                      1607.081 5        31.438
G02  25451998.660 5 133751153.33105       441.284 5        33.906    25451995.244 1 104221643.90001       343.911 1         4.000
G12  22177242.479 7 116542208.18907      5017.256 7        46.469    22177241.409 6  90812112.37306      3909.546 6        40.281    22177242.621 6  90812125.36906      3909.726 6        38.813
G13  24255004.665 5 127460908.01605     -2133.514 5        34.844    24255007.966 2  99320204.15302     -1662.445 2        13.750
G14  24650351.126 5 129538480.19605     -1710.895 5        31.906    24650354.314 1 100939093.83201     -1333.154 1         5.688    24650353.545 4                     -1333.413 4        25.563
G15  22725866.708 6 119425208.03906     -1795.315 6        36.875    22725868.938 4  93058628.71304     -1398.940 4        29.656    22725869.633 6  93058593.66506     -1398.903 6        36.219
G17  22320218.165 6 117293553.01006       449.614 6        38.125    22320220.857 4  91397563.69304       350.342 4        26.781    22320219.154 6  91397569.69206       350.361 6        37.156
G19  21464932.552 7 112798982.94607      2815.682 7        42.375    21464930.378 4  87895302.92704      2194.030 4        28.719
G22  23175393.843 3                     -1172.066 3        22.938
G23                                                                                                                                  24108367.333 5  98719734.74205      -773.789 5        33.406
G24  20019797.465 8 105204740.46408      1730.183 8        48.438    20019800.200 8  81977722.69508      1348.202 8        53.250    20019800.631 8  81977722.67108      1348.212 8        48.781
G32  24647957.778 5 129525912.85105      5128.872 5        33.094
> 2024 02 29 08 19 49.0000000  0 12
G01                                                                                                                                  23952102.128 5                      1606.611 5        30.156
G02  25451914.732 5 133750712.33105       440.087 5        33.469    25451911.477 1 104221300.32001       342.859 1         3.375
G12  22176287.894 7 116537190.99907      5016.356 7        46.344    22176286.655 6  90808202.87406      3908.841 6        40.188    22176287.773 6  90808215.91206      3908.921 6        39.906
G13  24255410.656 5 127463041.12305     -2133.751 5        34.000    24255413.792 2  99321866.30002     -1662.644 2        14.094
G14  24650677.031 5 129540190.79905     -1711.182 5        32.188    24650680.000 1 100940426.74801     -1333.407 1         5.563    24650677.836 3                     -1332.337 3        23.406
G15  22726207.925 6 119427003.50506     -1796.140 6        36.719    22726210.664 4  93060027.77104     -1399.571 4        29.031    22726211.236 5  93059992.73705     -1399.704 5        35.031
G17  22320132.702 6 117293103.36906       448.469 6        38.063    22320135.342 4  91397213.32004       349.460 4        27.406    22320134.167 6  91397219.32906       349.624 6        37.250
G19  21464396.655 7 112796167.30607      2814.636 7        42.125    21464394.611 4  87893108.93304      2193.219 4        28.625
G22  23175616.847 4                     -1173.221 4        24.344
G23                                                                                                                                  24108555.087 5  98720508.48905      -774.093 5        33.406
G24  20019468.212 8 105203010.44208      1728.956 8        48.313    20019471.008 8  81976374.62208      1347.240 8        53.156    20019471.553 8  81976374.60808      1347.255 8        48.656
G32  24646982.383 5 129520784.19905      5127.890 5        35.094
> 2024 02 29 08 19 50.0000000  0 12
G01                                                                                                                                  23951710.029 5                      1605.654 5        30.844
G02  25451831.322 5 133750272.26105       439.753 5        33.500    25451827.728 1 104220957.36501       342.743 1         3.000
G12  22175333.396 7 116532174.60207      5016.046 7        46.156    22175332.066 6  90804293.99906      3908.608 6        40.281    22175333.185 6  90804307.02506      3908.616 6        39.344
G13  24255816.648 5 127465174.91505     -2134.125 5        32.781    24255820.003 2  99323528.97002     -1662.971 2        13.813
G14  24651002.405 5 129541901.93205     -1711.076 5        33.406    24651005.449 1 100941760.06901     -1333.268 1         5.406    24651004.184 3                     -1333.844 3        22.688
G15  22726549.343 6 119428799.65906     -1796.580 6        37.719    22726552.506 4  93061427.34504     -1399.903 4        28.500    22726552.258 5  93061392.35405     -1399.712 5        34.000
G17  22320047.491 6 117292654.74906       448.217 6        37.625    22320050.027 4  91396863.74604       349.270 4        27.906    22320048.708 6  91396869.75306       349.255 6        37.031
G19  21463860.861 7 112793352.78407      2814.171 7        42.469    21463859.071 4  87890915.80004      2192.871 4        28.688
G22  23175841.336 4                     -1173.101 4        26.125
G23  24108738.949 4                      -994.137 4        24.875                                                                    24108743.389 5  98721282.91105      -774.464 5        33.125
G24  20019139.121 8 105201281.43608      1728.555 8        48.656    20019142.009 8  81975027.34208      1346.927 8        53.094    20019142.532 8  81975027.33708      1346.899 8        48.438
G32  24646007.225 5 129515656.21905      5127.867 5        34.063
> 2024 02 29 08 19 51.0000000  0 13
G01                                                                                                                                  23951316.844 5                      1605.022 5        30.313
G02  25451747.434 5 133749832.48705       439.471 5        33.844    25451744.028 1 104220614.64501       342.393 1         3.000
G10                                                                                                                                  23581160.853 4                       716.024 4        29.531
G12  22174378.769 7 116527158.34407      5015.982 7        45.938    22174377.495 6  90800385.23106      3908.550 6        40.375    22174378.689 6  90800398.24806      3908.548 6        39.500
G13  24256222.342 5 127467308.46305     -2133.531 5        33.875    24256225.942 2  99325191.47502     -1662.488 2        12.969
G14  24651327.896 4 129543612.93404     -1710.702 4        29.813    24651330.666 1 100943093.20201     -1332.826 1         4.125    24651330.210 3                     -1335.233 3        19.188
G15  22726891.026 6 119430595.89706     -1796.597 6        38.063    22726894.277 4  93062827.00204     -1399.947 4        28.063    22726893.510 5  93062792.00505     -1399.838 5        34.125
G17  22319962.334 6 117292206.53206       447.527 6        37.813    22319964.736 4  91396514.48104       348.726 4        28.188    22319963.581 5  91396520.48305       348.875 5        35.938
G19  21463325.418 7 112790538.76807      2813.538 7        42.250    21463323.608 4  87888723.05804      2192.366 4        28.625
G22  23176065.158 4                     -1173.779 4        28.125
G23  24108928.089 4                      -996.762 4        24.000                                                                    24108932.821 5  98722057.37405      -774.792 5        34.156
G24  20018810.180 8 105199552.80108      1728.144 8        48.563    20018813.081 8  81973680.35508      1346.598 8        52.906    20018813.577 8  81973680.34608      1346.669 8        48.531
G32  24645031.763 5 129510528.29605      5127.584 5        34.531
> 2024 02 29 08 19 52.0000000  0 13
G01                                                                                                                                  23950925.009 5                      1604.698 5        30.406
G02  25451663.716 5 133749393.29705       439.140 5        33.563    25451660.279 1 104220272.46401       342.194 1         2.000
G10                                                                                                                                  23580985.521 5                       715.701 5        30.406
G12  22173424.111 7 116522142.41307      5015.982 7        45.938    22173423.001 6  90796476.71806      3908.556 6        40.313    22173424.234 6  90796489.74706      3908.521 6        39.781
G13  24256629.117 5 127469442.16305     -2133.431 5        34.406    24256631.996 2  99326854.09202     -1662.381 2        12.344
G14  24651653.681 5 129545324.04105     -1710.780 5        30.563    24651656.365 1 100944426.53401     -1333.124 1         2.188    24651656.857 3                     -1334.362 3        18.969
G15  22727232.807 6 119432392.44406     -1796.579 6        38.094    22727236.119 4  93064226.91004     -1399.931 4        27.844    22727235.409 5  93064191.96405     -1399.835 5        34.656
G17  22319877.283 6 117291758.89406       447.463 6        37.125    22319879.538 4  91396165.67004       348.667 4        28.250    22319878.564 6  91396171.64206       348.778 6        37.188
G19  21462789.851 6 112787725.40506      2813.247 6        41.688    21462788.270 4  87886530.82904      2192.128 4        28.375
G22  23176289.553 4                     -1173.374 4        29.031
G23  24109117.181 4                      -994.763 4        25.094                                                                    24109121.840 5  98722832.14905      -774.629 5        33.313
G24  20018481.345 8 105197824.77508      1727.951 8        48.625    20018484.264 8  81972333.84208      1346.453 8        52.781    20018484.766 8  81972333.83508      1346.502 8        48.469
G32  24644055.805 5 129505400.59605      5128.313 5        32.406
> 2024 02 29 08 19 53.0000000  0 12
G01                                                                                                                                  23950532.334 4                      1604.406 4        29.906
G02  25451580.330 5 133748954.28705       438.257 5        32.906    25451576.441 1 104219930.32801       341.499 1         3.594
G10                                                                                                                                  23580811.239 4                       715.229 4        29.125
G12  22172469.466 7 116517126.58807      5015.490 7        45.750    22172468.497 6  90792568.28406      3908.171 6        40.281    22172469.804 6  90792581.32106      3908.027 6        39.500
G13  24257034.905 6 127471575.68606     -2133.787 6        36.156    24257037.792 2  99328516.56502     -1662.670 2        13.000
G15  22727574.541 6 119434188.98306     -1796.839 6        39.000    22727577.974 4  93065626.80504     -1400.124 4        27.969    22727577.800 5  93065591.85005     -1400.425 5        35.250
G17  22319792.012 6 117291311.55006       446.680 6        37.906    22319794.398 4  91395817.07404       348.066 4        28.531    22319793.675 6  91395823.08906       348.163 6        37.250
G19  21462254.508 7 112784912.50807      2812.370 7        42.313    21462253.039 4  87884338.96804      2191.451 4        28.406
G22  23176513.707 4                     -1172.932 4        29.781
G23  24109305.628 3                      -994.362 3        21.969                                                                    24109311.484 5  98723607.01805      -775.290 5        33.906
G24  20018152.595 8 105196097.09008      1727.153 8        48.781    20018155.515 8  81970987.59308      1345.830 8        52.813    20018155.960 8  81970987.58608      1345.852 8        48.719
G32  24643079.663 5 129500272.92605      5127.373 5        33.469
> 2024 02 29 08 19 54.0000000  0 13
G01                                                                                                                                  23950141.617 4                      1603.335 4        29.750
G02  25451496.261 5 133748516.68805       437.332 5        33.813    25451493.179 1 104219589.40001       340.814 1         3.781
G10  23580639.326 3                       916.008 3        23.313                                                                    23580637.503 4                       714.202 4        27.219
G12  22171515.152 7 116512111.89107      5014.384 7        46.000    22171514.195 6  90788660.72406      3907.316 6        40.281    22171515.457 6  90788673.77506      3907.072 6        39.250
G13  24257441.269 6 127473710.07106     -2134.649 6        36.156    24257443.744 2  99330179.72202     -1663.272 2        13.375
G14  24652304.051 5 129548746.71705     -1711.781 5        30.500    24652308.328 1 100947093.56801     -1333.831 1         3.188    24652315.563 4                     -1333.272 4        25.000
G15  22727916.920 6 119435986.63006     -1797.778 6        38.969    22727920.031 4  93067027.56504     -1400.862 4        27.875    22727920.262 5  93066992.58605     -1400.579 5        34.750
G17  22319707.164 6 117290865.62906       445.377 6        37.813    22319709.572 4  91395469.60904       347.028 4        28.969    22319709.133 6  91395475.60706       347.201 6        36.969
G19  21461719.303 7 112782101.06807      2810.951 7        42.250    21461718.099 4  87882148.23504      2190.340 4        28.344
G22  23176737.637 4                     -1174.437 4        27.875
G23  24109491.795 3                      -994.810 3        23.719                                                                    24109501.165 5  98724382.69505      -776.016 5        33.906
G24  20017824.205 8 105194370.78008      1725.885 8        48.625    20017827.025 8  81969642.41208      1344.845 8        52.813    20017827.464 8  81969642.40408      1344.830 8        48.719
G32  24642103.767 5 129495146.24105      5126.518 5        33.938
> 2024 02 29 08 19 55.0000000  0 13
G01                                                                                                                                  23949750.184 4                      1602.444 4        29.938
G02  25451413.214 5 133748079.55005       436.710 5        32.906    25451409.998 1 104219248.71101       340.204 1         4.406
G10  23580467.652 3                       915.770 3        23.844                                                                    23580463.624 4                       713.644 4        26.656
G12  22170561.015 7 116507097.51507      5014.120 7        45.688    22170559.964 6  90784753.42006      3907.098 6        40.188    22170561.225 6  90784766.46606      3907.305 6        39.063
G13  24257847.250 6 127475844.54306     -2134.432 6        36.813    24257850.111 2  99331842.93702     -1663.208 2        13.250
G14  24652629.107 4 129550458.60004     -1712.442 4        29.313    24652633.849 1 100948427.52501     -1334.335 1         3.781    24652637.493 4                     -1334.195 4        25.656
G15  22728259.405 6 119437784.57306     -1798.063 6        39.594    22728262.173 4  93068428.55704     -1401.083 4        28.031    22728262.439 5  93068393.57005     -1401.126 5        34.531
G17  22319622.230 6 117290420.25006       444.848 6        38.344    22319624.875 4  91395122.56304       346.636 4        29.094    22319624.347 6  91395128.56306       346.782 6        37.375
G19  21461184.197 7 112779290.29107      2810.507 7        42.625    21461183.288 4  87879958.01804      2190.007 4        28.563
G22  23176960.435 5                     -1174.348 5        30.063
G23  24109681.499 3                      -994.730 3        22.125                                                                    24109691.142 5  98725158.64305      -776.047 5        33.188
G24  20017495.864 8 105192645.06008      1725.423 8        48.531    20017498.643 8  81968297.69408      1344.484 8        52.906    20017498.976 8  81968297.68108      1344.535 8        48.688
G32  24641128.175 6 129490019.85706      5126.349 6        36.563
> 2024 02 29 08 19 56.0000000  0 13
G01                                                                                                                                  23949358.461 5                      1601.805 5        30.719
G02  25451330.271 5 133747643.18905       435.698 5        32.719    25451326.830 1 104218908.71801       339.513 1         3.594
G10                                                                                                                                  23580290.278 4                       712.725 4        25.313
G12  22169606.936 7 116502083.76507      5013.320 7        45.719    22169605.863 6  90780846.60706      3906.482 6        40.313    22169607.022 6  90780859.64606      3906.371 6        38.906
G13  24258253.761 6 127477979.38106     -2135.453 6        36.750    24258256.233 2  99333506.43502     -1663.976 2        14.375
G14  24652954.163 4 129552170.76704     -1712.023 4        28.500    24652959.580 1 100949761.65301     -1334.011 1         4.844    24652961.172 4                     -1334.022 4        27.000
G15  22728601.762 6 119439583.02706     -1798.888 6        39.281    22728604.400 4  93069829.94104     -1401.739 4        28.125    22728604.945 5  93069794.96605     -1401.652 5        35.063
G17  22319537.719 6 117289975.73006       443.848 6        39.125    22319540.334 4  91394776.17804       345.852 4        29.281    22319539.747 6  91394782.18106       345.899 6        37.531
G19  21460649.264 7 112776480.49707      2809.146 7        42.344    21460648.612 4  87877768.56904      2188.945 4        28.438
G22  23177184.593 5                     -1174.645 5        31.188
G23  24109871.374 3                      -993.781 3        22.375                                                                    24109881.019 5  98725935.07705      -776.423 5        34.031
G24  20017167.641 8 105190920.18508      1724.269 8        48.781    20017170.421 8  81966953.63208      1343.588 8        52.875    20017170.754 8  81966953.62108      1343.538 8        48.844
G32  24640152.888 6 129484893.95706      5125.528 6        36.438
> 2024 02 29 08 19 57.0000000  0 13
G01                                                                                                                                  23948967.919 5                      1601.305 5        30.031
G02  25451247.006 5 133747207.42605       435.441 5        33.313    25451243.980 1 104218569.16601       339.335 1         4.563
G10                                                                                                                                  23580116.139 4                       712.827 4        27.531
G12  22168652.938 7 116497070.42507      5012.989 7        45.906    22168651.833 6  90776940.11206      3906.224 6        40.281    22168652.913 6  90776953.13606      3906.113 6        39.594
G13  24258660.238 6 127480114.35906     -2135.223 6        36.344    24258662.569 2  99335170.04902     -1663.831 2        14.219
G14  24653280.927 4 129553883.08804     -1712.397 4        29.063    24653285.382 1 100951095.94001     -1334.302 1         3.781    24653286.567 4                     -1334.155 4        26.594
G15  22728944.316 6 119441381.85906     -1799.132 6        38.063    22728946.725 4  93071231.63004     -1401.929 4        28.094    22728947.441 5  93071196.61905     -1401.782 5        35.188
G17  22319453.582 6 117289531.85306       443.479 6        38.250    22319455.914 4  91394430.30704       345.567 4        29.500    22319455.360 6  91394436.31606       345.447 6        37.625
G19  21460114.729 7 112773671.44107      2808.471 7        42.906    21460114.047 4  87875579.68904      2188.422 4        28.250
G22  23177409.534 5                     -1175.140 5        30.438
G23  24110062.683 3                      -997.643 3        23.344                                                                    24110071.178 5  98726711.90705      -777.082 5        33.563
G24  20016839.423 8 105189195.96308      1723.706 8        48.563    20016842.329 8  81965610.08208      1343.146 8        52.844    20016842.647 8  81965610.08108      1343.113 8        48.656
G32  24639178.222 6 129479768.37906      5125.059 6        36.500
> 2024 02 29 08 19 58.0000000  0 13
G01                                                                                                                                  23948577.318 5                      1600.809 5        31.688
G02  25451164.067 5 133746771.96205       435.100 5        32.938    25451161.183 1 104218229.77501       339.098 1         4.281
G10                                                                                                                                  23579943.843 4                       712.226 4        26.094
G12  22167699.038 7 116492057.22707      5012.891 7        45.500    22167697.853 6  90773033.72206      3906.151 6        40.250    22167699.066 6  90773046.74706      3906.069 6        39.719
G13  24259066.313 6 127482249.21506     -2135.077 6        36.625    24259068.785 2  99336833.57602     -1663.647 2        14.500
G14  24653607.351 5 129555595.26305     -1712.283 5        30.844    24653611.292 1 100952430.05201     -1334.183 1         4.125    24653612.007 4                     -1333.886 4        28.750
G15  22729286.677 6 119443180.76006     -1799.160 6        38.094    22729289.045 4  93072633.35404     -1401.912 4        27.688    22729290.013 5  93072598.37205     -1401.987 5        34.281
G17  22319369.125 6 117289088.35606       442.979 6        39.156    22319371.571 4  91394084.72604       345.190 4        29.750    22319371.144 6  91394090.74506       345.255 6        38.094
G19  21459580.374 7 112770862.87207      2808.003 7        43.750    21459579.563 4  87873391.19004      2188.052 4        28.438
G22  23177633.459 4                     -1175.243 4        29.313
G23  24110253.617 3                      -992.078 3        21.375                                                                    24110261.403 5  98727488.74805      -776.958 5        34.531
G24  20016511.512 8 105187472.13308      1723.383 8        48.594    20016514.309 8  81964266.83608      1342.896 8        53.000    20016514.558 8  81964266.82608      1342.926 8        48.875
G32  24638202.880 5 129474642.82105      5125.480 5        35.344
> 2024 02 29 08 19 59.0000000  0 13
G01                                                                                                                                  23948186.583 5                      1600.398 5        30.688
G02  25451080.838 5 133746336.75505       434.550 5        33.219    25451078.280 1 104217890.59101       338.509 1         3.375
G10                                                                                                                                  23579769.508 3                       712.430 3        23.656
G12  22166745.125 7 116487044.04307      5012.778 7        45.313    22166743.877 6  90769127.34606      3906.062 6        40.219    22166745.192 6  90769140.37006      3906.013 6        39.063
G13  24259472.071 6 127484383.90706     -2134.973 6        36.781    24259474.880 2  99338496.94902     -1663.613 2        14.469
G14  24653933.715 5 129557307.21605     -1712.340 5        31.750    24653937.233 1 100953764.00701     -1334.252 1         5.000    24653938.109 4                     -1334.247 4        28.000
G15  22729628.863 6 119444979.62606     -1799.404 6        37.188    22729631.366 4  93074035.06104     -1402.121 4        27.250    22729632.396 5  93074000.06705     -1402.105 5        34.563
G17  22319285.008 6 117288645.13506       442.843 6        39.625    22319287.294 5  91393739.36205       345.075 5        30.031    22319286.834 6  91393745.37606       344.862 6        37.375
G19  21459046.127 7 112768054.64807      2807.495 7        43.844    21459045.150 4  87871202.96704      2187.653 4        28.750
G22  23177857.608 4                     -1174.664 4        29.344
G23  24110443.053 3                      -995.391 3        22.000                                                                    24110451.052 5  98728265.61505      -777.204 5        35.469
G24  20016183.452 8 105185748.56108      1723.031 8        48.844    20016186.329 8  81962923.79108      1342.620 8        53.063    20016186.429 8  81962923.78708      1342.601 8        48.625
G32  24637227.982 5 129469517.19305      5125.177 5        34.875
> 2024 02 29 08 20  0.0000000  0 13
G01                                                                                                                                  23947796.219 5                      1599.789 5        31.344
G02  25450998.600 5 133745902.01905       435.093 5        31.781    25450995.626 1 104217551.87701       338.965 1         3.781
G10                                                                                                                                  23579595.249 4                       711.506 4        28.594
G12  22165791.148 7 116482031.24307      5013.516 7        45.438    22165789.954 6  90765221.27206      3906.633 6        40.125    22165791.538 6  90765234.28706      3906.571 6        39.344
G13  24259878.347 6 127486518.66006     -2133.783 6        37.438    24259881.073 2  99340160.38502     -1662.673 2        14.875
G14  24654259.555 4 129559019.27904     -1711.456 4        29.156    24654262.771 1 100955098.04501     -1333.536 1         5.406    24654264.596 4                     -1334.033 4        28.094
G15  22729971.002 6 119446778.83506     -1798.395 6        38.469    22729973.740 4  93075437.03504     -1401.355 4        27.125    22729974.787 5  93075402.06405     -1401.380 5        33.500
G17  22319200.972 6 117288202.55706       443.197 6        38.406    22319203.138 5  91393394.49805       345.348 5        30.031    22319202.297 6  91393400.50206       345.356 6        37.281
G19  21458512.067 7 112765247.17307      2808.110 7        43.281    21458510.885 4  87869015.32404      2188.121 4        28.688
G22  23178081.713 5                     -1174.991 5        31.531
G23                                                                                                                                  24110640.757 5  98729042.82305      -776.539 5        34.406
G24  20015855.661 8 105184025.63308      1723.598 8        48.500    20015858.469 8  81961581.25208      1343.063 8        53.125    20015858.396 8  81961581.24708      1343.003 8        48.438
G32  24636252.376 5 129464391.95805      5126.034 5        34.781
> 2024 02 29 08 20  1.0000000  0 13
G01                                                                                                                                  23947405.999 5                      1599.437 5        31.500
G02  25450915.723 5 133745467.76305       434.358 5        31.531    25450913.268 1 104217213.55601       338.576 1         3.000
G10  23579437.448 4                       913.189 4        28.313                                                                    23579422.452 4                       711.057 4        28.313
G12  22164837.478 7 116477018.70507      5012.938 7        44.938    22164836.072 6  90761315.39906      3906.188 6        40.094    22164837.664 6  90761328.39806      3906.199 6        39.219
G13  24260284.709 6 127488653.38206     -2134.032 6        37.719    24260287.150 2  99341823.80902     -1662.865 2        14.938
G14  24654584.700 4 129560731.27104     -1711.357 4        28.938    24654588.493 1 100956432.10401     -1333.514 1         5.844    24654590.483 4                     -1333.612 4        28.281
G15  22730313.117 6 119448578.22006     -1798.808 6        38.031    22730316.110 4  93076839.16004     -1401.652 4        26.688    22730316.304 5  93076804.12405     -1401.585 5        32.875
G17  22319116.870 6 117287760.45706       442.246 6        39.125    22319119.058 5  91393049.99805       344.609 5        30.031    22319117.679 6  91393056.01006       344.724 6        37.125
G19  21457978.205 7 112762440.30107      2807.198 7        43.500    21457976.728 4  87866828.15104      2187.427 4        28.719
G22  23178305.893 5                     -1175.054 5        31.063
G23                                                                                                                                  24110830.775 5  98729820.18105      -776.923 5        34.375
G24  20015527.861 8 105182303.17108      1722.822 8        48.563    20015530.695 8  81960239.07508      1342.456 8        53.188    20015530.661 8  81960239.08008      1342.371 8        48.563
G32  24635277.017 5 129459266.77605      5125.832 5        34.031
> 2024 02 29 08 20  2.0000000  0 13
G01                                                                                                                                  23947015.765 5                      1598.610 5        31.500
G02  25450832.627 5 133745034.38905       432.647 5        33.063    25450830.936 1 104216875.84501       337.132 1         3.594
G10  23579263.641 4                       911.556 4        29.625                                                                    23579251.229 4                       711.982 4        24.125
G12  22163883.814 7 116472006.85107      5011.317 7        44.531    22163882.316 6  90757410.05406      3904.930 6        39.813    22163883.861 6  90757423.06706      3904.804 6        39.406
G13  24260691.052 6 127490788.64106     -2135.590 6        36.406    24260693.477 2  99343487.64302     -1664.041 2        15.188
G14  24654911.602 5 129562443.70805     -1712.683 5        32.469    24654914.591 1 100957766.40001     -1334.507 1         7.000    24654916.460 4                     -1334.091 4        27.406
G15  22730655.775 6 119450378.24106     -1800.586 6        37.531    22730658.547 4  93078241.75104     -1403.028 4        26.438    22730658.928 5  93078206.72005     -1403.078 5        33.813
G17  22319032.807 6 117287319.26706       440.482 6        40.375    22319035.121 5  91392706.21105       343.224 5        30.125    22319034.068 6  91392712.25106       343.040 6        36.875
G19  21457444.555 7 112759634.46907      2804.926 7        43.594    21457442.789 4  87864641.78804      2185.644 4        28.781
G22  23178529.693 4                     -1175.786 4        28.438
G23  24111019.467 4                      -998.161 4        25.750                                                                    24111020.855 5  98730598.11405      -778.616 5        35.625
G24  20015200.384 8 105180581.70808      1720.745 8        48.656    20015203.113 8  81958897.67508      1340.840 8        53.156    20015203.023 8  81958897.66208      1340.853 8        48.344
G32  24634303.120 5 129454142.28105      5124.001 5        32.281                                                                    24634302.084 3                      3993.139 3        21.563
> 2024 02 29 08 20  3.0000000  0 13
G01                                                                                                                                  23946625.379 5                      1598.073 5        31.625
G02  25450750.391 5 133744601.24005       433.785 5        32.281    25450748.591 1 104216538.23201       337.902 1         3.781
G10  23579089.279 5                       910.967 5        30.656                                                                    23579078.217 4                       709.492 4        27.188
G12  22162930.159 7 116466995.12107      5012.676 7        43.625    22162928.577 6  90753504.80706      3905.978 6        39.469    22162930.129 6  90753517.82406      3905.846 6        39.125
G13  24261097.191 6 127492923.72406     -2134.085 6        36.375    24261099.684 2  99345151.32902     -1662.919 2        15.188
G14  24655237.221 5 129564156.02505     -1711.185 5        31.500    24655240.630 1 100959100.66801     -1333.390 1         7.500    24655242.763 4                     -1334.370 4        28.031
G15  22730997.941 6 119452178.32406     -1799.161 6        39.344    22731001.037 4  93079644.40204     -1401.932 4        26.844    22731001.915 5  93079609.39205     -1401.911 5        35.031
G17  22318948.726 6 117286878.48106       441.508 6        40.469    22318951.274 5  91392362.74505       344.031 5        30.188    22318950.338 6  91392368.75206       344.231 6        37.281
G19  21456910.861 7 112756829.06807      2806.128 7        43.656    21456908.918 4  87862455.76504      2186.599 4        28.719
G22  23178752.536 4                     -1175.535 4        28.625
G23  24111211.796 4                      -998.982 4        26.094                                                                    24111211.499 5  98731376.08905      -777.582 5        35.500
G24  20014872.826 8 105178860.57308      1721.818 8        48.594    20014875.580 8  81957556.52708      1341.672 8        53.188    20014875.417 8  81957556.52808      1341.656 8        48.344
G32  24633328.905 5 129449017.71005      5125.265 5        33.781                                                                    24633326.318 3                      3997.083 3        19.281
> 2024 02 29 08 20  4.0000000  0 13
G01                                                                                                                                  23946235.981 5                      1597.758 5        32.594
G02  25450667.961 5 133744168.41205       432.121 5        31.438    25450666.380 1 104216201.00001       336.670 1         4.844
G10  23578914.438 4                       910.447 4        28.563                                                                    23578904.365 4                       709.440 4        24.969
G12  22161976.379 7 116461983.44407      5010.968 7        43.813    22161974.856 6  90749599.60306      3904.646 6        39.031    22161976.301 6  90749612.63606      3904.678 6        39.438
G13  24261503.146 6 127495058.55306     -2135.279 6        37.063    24261505.985 2  99346814.80602     -1663.849 2        15.313
G14  24655563.426 5 129565868.14505     -1712.571 5        31.500    24655566.482 1 100960434.78201     -1334.561 1         7.375    24655567.904 4                     -1334.409 4        26.875
G15  22731340.701 6 119453978.39606     -1800.569 6        39.250    22731343.622 4  93081047.05204     -1403.037 4        27.125    22731344.935 5  93081012.06405     -1403.209 5        34.844
G17  22318865.097 6 117286437.96406       439.765 6        40.688    22318867.467 5  91392019.49005       342.677 5        30.375    22318866.800 6  91392025.51106       342.612 6        36.813
G19  21456377.040 7 112754024.08007      2804.284 7        43.688    21456375.100 4  87860270.06104      2185.159 4        28.719
G22  23178976.001 4                     -1175.609 4        29.594
G23                                                                                                                                  24111401.445 5  98732154.13505      -778.500 5        35.438
G24  20014545.330 8 105177139.75808      1720.100 8        48.875    20014548.101 8  81956215.63408      1340.337 8        53.188    20014547.963 8  81956215.62808      1340.266 8        48.406
G32  24632354.217 5 129443893.17505      5123.763 5        34.094
> 2024 02 29 08 20  5.0000000  0 13
G01                                                                                                                                  23945846.051 5                      1597.197 5        32.656
G02  25450585.675 5 133743736.20805       432.182 5        30.938    25450584.174 1 104215864.20301       336.854 1         5.125
G10  23578739.379 4                       909.701 4        26.438                                                                    23578730.844 3                       707.791 3        23.656
G12  22161022.638 7 116456972.26007      5010.870 7        43.906    22161021.260 6  90745694.78806      3904.574 6        38.875    22161022.410 6  90745707.81106      3904.595 6        38.938
G13  24261909.409 6 127497193.67506     -2135.212 6        36.438    24261912.303 2  99348478.53802     -1663.814 2        15.844
G14  24655889.166 5 129567580.45505     -1712.562 5        30.781    24655892.360 1 100961769.09601     -1334.501 1         6.875    24655891.609 4                     -1334.311 4        27.781
G15  22731683.567 6 119455778.90506     -1800.657 6        38.875    22731686.296 4  93082450.04104     -1403.092 4        27.281    22731687.692 5  93082415.04605     -1403.207 5        34.125
G17  22318781.197 6 117285998.19806       439.382 6        40.688    22318783.776 5  91391676.81405       342.378 5        30.594    22318783.208 6  91391682.82106       342.282 6        37.250
G19  21455843.406 7 112751219.93907      2803.651 7        43.156    21455841.439 4  87858085.01604      2184.663 4        28.750
G22  23179199.735 5                     -1175.775 5        30.250
G23  24111594.330 4                      -998.091 4        24.500                                                                    24111591.997 5  98732932.57105      -778.594 5        35.000
G24  20014217.986 8 105175419.70008      1719.599 8        49.063    20014220.765 8  81954875.32708      1339.951 8        53.313    20014220.671 8  81954875.31808      1339.917 8        48.594
G32  24631379.148 5 129438768.99005      5124.172 5        34.250
> 2024 02 29 08 20  6.0000000  0 13
G01                                                                                                                                  23945456.202 5                      1596.325 5        31.531
G02  25450503.074 5 133743304.64505       430.323 5        32.750    25450502.053 1 104215527.92701       335.260 1         6.875
G10  23578565.160 4                       909.136 4        27.906                                                                    23578558.525 4                       708.541 4        29.813
G12  22160068.989 7 116451961.49607      5009.643 7        44.719    22160067.726 6  90741790.29906      3903.620 6        38.813    22160068.848 6  90741803.32006      3903.793 6        38.844
G13  24262315.749 6 127499328.92806     -2136.433 6        37.469    24262318.648 2  99350142.37002     -1664.771 2        15.125
G14  24656215.339 4 129569292.93704     -1713.866 4        28.938    24656218.279 1 100963103.48301     -1335.511 1         7.875    24656216.692 4                     -1334.447 4        28.250
G15  22732026.526 6 119457579.77506     -1802.280 6        37.375    22732028.987 4  93083853.31304     -1404.372 4        27.063    22732030.253 5  93083818.33805     -1404.211 5        34.156
G17  22318697.419 6 117285559.10606       437.588 6        40.125    22318700.228 5  91391334.65405       340.989 5        30.688    22318699.155 6  91391340.67406       340.995 6        36.125
G19  21455309.818 7 112748416.54907      2802.200 7        42.906    21455307.907 4  87855900.55204      2183.531 4        28.781
G22  23179423.763 5                     -1175.904 5        30.063
G23  24111784.647 3                      -999.470 3        23.625                                                                    24111782.032 5  98733711.31805      -779.518 5        34.375
G24  20013890.853 8 105173700.27308      1718.166 8        48.719    20013893.558 8  81953535.51308      1338.832 8        53.438    20013893.508 8  81953535.51008      1338.765 8        48.594
G32  24630403.472 5 129433645.20905      5122.534 5        32.969
> 2024 02 29 08 20  7.0000000  0 13
G01                                                                                                                                  23945066.723 5                      1595.798 5        32.688
G02  25450421.338 5 133742873.85405       430.853 5        32.875    25450420.057 1 104215192.26301       335.653 1         6.000
G10  23578392.121 4                       908.668 4        29.063                                                                    23578385.711 4                       707.752 4        28.125
G12  22159115.768 7 116446951.37007      5010.320 7        43.844    22159114.318 6  90737886.30806      3904.152 6        38.813    22159115.167 6  90737899.34806      3903.859 6        38.813
G13  24262721.769 6 127501464.53206     -2135.537 6        38.063    24262725.025 2  99351806.46602     -1664.046 2        15.094
G14  24656540.538 5 129571005.71105     -1712.433 5        30.031    24656544.149 1 100964438.07701     -1334.350 1         7.375    24656542.543 4                     -1334.158 4        27.688
G15  22732369.161 6 119459381.20006     -1800.926 6        37.625    22732371.782 4  93085257.01804     -1403.295 4        26.844    22732372.854 5  93085222.06205     -1403.576 5        32.844
G17  22318614.052 6 117285120.83906       438.203 6        40.531    22318616.819 5  91390993.13605       341.462 5        30.750    22318615.587 6  91390999.17306       341.443 6        36.531
G19  21454776.390 7 112745614.12007      2802.518 7        43.375    21454774.572 4  87853716.83904      2183.780 4        28.875
G22  23179647.478 5                     -1176.693 5        30.438
G23  24111976.041 3                      -999.564 3        23.469                                                                    24111972.114 5  98734490.55205      -778.716 5        34.531
G24  20013563.785 8 105171981.73008      1718.661 8        48.750    20013566.517 8  81952196.38608      1339.222 8        53.469    20013566.653 8  81952196.38508      1339.096 8        48.625
G32  24629428.242 5 129428521.91905      5123.032 5        33.563
> 2024 02 29 08 20  8.0000000  0 13
G01                                                                                                                                  23944676.731 5                      1595.074 5        32.219
G02  25450339.491 5 133742443.34605       430.263 5        32.594    25450338.132 1 104214856.80101       335.326 1         5.563
G10  23578218.274 4                       907.479 4        25.188                                                                    23578213.012 4                       707.101 4        25.813
G12  22158162.454 7 116441941.36007      5009.747 7        43.781    22158160.901 6  90733982.40506      3903.697 6        38.781    22158161.592 6  90733995.41606      3903.799 6        38.719
G13  24263127.698 6 127503600.12706     -2135.844 6        37.188    24263131.451 2  99353470.57002     -1664.279 2        15.688
G14  24656866.417 5 129572718.40505     -1713.162 5        30.250    24656870.067 1 100965772.67701     -1334.871 1         7.875    24656868.860 4                     -1334.925 4        28.656
G15  22732711.746 6 119461182.69206     -1801.744 6        38.281    22732714.603 4  93086660.76604     -1403.953 4        27.000    22732715.882 5  93086625.78905     -1403.699 5        33.156
G17  22318530.773 6 117284682.98306       437.473 6        40.469    22318533.495 5  91390651.95105       340.881 5        30.906    22318532.371 6  91390658.00606       340.664 6        36.906
G19  21454243.208 7 112742812.20507      2801.472 7        43.344    21454241.358 4  87851533.53404      2182.967 4        29.094
G22  23179871.189 5                     -1176.938 5        31.156
G23  24112166.470 4                     -1001.651 4        25.844                                                                    24112162.359 5  98735269.92005      -780.020 5        34.813
G24  20013236.879 8 105170263.59408      1717.797 8        49.031    20013239.552 8  81950857.57608      1338.544 8        53.438    20013239.711 8  81950857.57208      1338.396 8        48.219
G32  24628452.534 5 129423398.59905      5123.130 5        33.531                                                                    24628451.552 3                      3992.677 3        21.375
> 2024 02 29 08 20  9.0000000  0 13
G01                                                                                                                                  23944287.637 5                      1593.954 5        34.125
G02  25450258.663 5 133742013.44305       428.636 5        32.750    25450256.373 1 104214521.79301       333.961 1         4.844
G10  23578045.168 3                       909.994 3        21.938                                                                    23578038.659 4                       707.276 4        24.813
G12  22157209.108 7 116436931.74107      5008.806 7        45.094    22157207.551 6  90730078.80606      3902.970 6        38.750    22157208.248 6  90730091.82906      3902.834 6        38.969
G13  24263533.886 6 127505735.73306     -2136.440 6        40.438    24263537.809 2  99355134.67802     -1664.764 2        16.688
G14  24657190.958 4 129574431.18904     -1714.086 4        27.938    24657196.125 1 100967107.26301     -1335.647 1         7.250    24657196.160 4                     -1335.014 4        27.125
G15  22733054.719 6 119462984.53706     -1802.435 6        38.875    22733057.505 4  93088064.81004     -1404.493 4        27.313    22733058.874 5  93088029.85905     -1404.571 5        34.063
G17  22318447.655 6 117284245.69606       436.556 6        38.188    22318450.318 5  91390311.21505       340.170 5        30.938    22318449.115 6  91390317.28206       339.717 6        37.813
G19  21453710.014 7 112740011.00507      2800.030 7        43.375    21453708.291 4  87849350.77804      2181.844 4        29.000
G22  23180095.861 5                     -1176.901 5        30.656
G23  24112360.158 4                     -1001.500 4        25.656                                                                    24112353.412 5  98736049.57805      -780.231 5        33.531
G24  20012910.092 8 105168546.06808      1716.537 8        48.750    20012912.699 8  81949519.24708      1337.563 8        53.406    20012912.926 8  81949519.24308      1337.492 8        48.688
G32  24627477.059 5 129418275.71805      5122.265 5        33.188                                                                    24627479.332 3                      3992.504 3        22.844
> 2024 02 29 08 20 10.0000000  0 13
G01                                                                                                                                  23943898.664 5  98046259.13115      1593.890 5        34.094
G02  25450177.519 5 133741584.35605       428.006 5        32.313    25450174.730 1 104214187.47501       333.483 1         5.563
G10  23577871.057 3                       905.602 3        21.813                                                                    23577863.877 3                       705.881 3        22.281
G12  22156255.912 7 116431922.75207      5008.648 7        44.938    22156254.376 6  90726175.69706      3902.835 6        38.813    22156255.278 6  90726188.72306      3902.809 6        39.750
G13  24263940.219 6 127507871.77306     -2136.399 6        40.188    24263944.289 2  99356799.11502     -1664.704 2        17.219
G14  24657517.199 4 129576144.35704     -1713.471 4        29.250    24657522.307 1 100968442.16901     -1335.090 1         7.000    24657522.517 4                     -1334.942 4        28.406
G15  22733398.031 6 119464786.99006     -1802.556 6        36.594    22733400.492 4  93089469.32604     -1404.582 4        27.063    22733401.417 5  93089434.31405     -1404.601 5        32.938
G17  22318364.388 6 117283809.33106       436.169 6        39.344    22318367.351 5  91389971.18305       339.852 5        30.719    22318365.958 6  91389977.23906       339.674 6        38.813
G19  21453177.273 7 112737210.77007      2799.805 7        43.188    21453175.430 4  87847168.78004      2181.669 4        29.031
G22  23180319.670 4                     -1177.336 4        28.281
G23                                                                                                                                  24112543.373 5  98736829.68005      -780.172 5        34.594
G24  20012583.384 8 105166829.44108      1716.208 8        49.031    20012586.029 8  81948181.61508      1337.309 8        53.406    20012586.295 8  81948181.58908      1337.320 8        48.938
G32  24626501.914 5 129413153.30605      5121.476 5        31.844                                                                    24626503.914 4                      3991.644 4        24.625
> 2024 02 29 08 20 11.0000000  0 13
G01                                                                                                                                  23943509.494 5  98044665.49105      1593.128 5        32.594
G02  25450095.780 5 133741155.61405       428.393 5        33.281    25450093.168 1 104213853.33401       333.839 1         5.563
G10  23577697.880 3                       902.217 3        22.188                                                                    23577689.752 4                       705.991 4        24.531
G12  22155302.964 7 116426913.98007      5008.389 7        44.406    22155301.241 6  90722272.75506      3902.636 6        38.938    22155302.225 6  90722285.79606      3902.583 6        38.719
G13  24264346.748 6 127510007.75006     -2136.454 6        40.813    24264350.630 2  99358463.51302     -1664.794 2        17.719
G14  24657843.587 4 129577857.46704     -1714.164 4        29.281    24657848.427 1 100969777.03801     -1335.616 1         6.500    24657848.226 3                     -1335.777 3        23.969
G15  22733741.167 5 119466589.56405     -1802.761 5        34.781    22733743.474 4  93090873.91604     -1404.760 4        26.469    22733744.555 5  93090838.94105     -1404.852 5        33.844
G17  22318280.825 6 117283373.45906       435.334 6        39.719    22318284.519 5  91389631.55105       339.216 5        30.906    22318283.420 6  91389637.58306       339.056 6        38.281
G19  21452644.436 7 112734411.10207      2799.142 7        43.188    21452642.690 4  87844987.22004      2181.149 4        28.906
G22  23180542.715 4                     -1177.347 4        26.281
G23  24112746.689 3                     -1002.312 3        23.094                                                                    24112733.447 5  98737609.90805      -780.449 5        34.313
G24  20012256.856 8 105165113.25108      1715.715 8        49.156    20012259.453 8  81946844.31908      1336.923 8        53.469    20012259.733 8  81946844.31308      1336.831 8        48.688
G32  24625527.288 5 129408031.00905      5121.904 5        32.656                                                                    24625530.438 3                      3991.087 3        23.156
> 2024 02 29 08 20 12.0000000  0 13
G01                                                                                                                                  23943120.749 5  98043072.51905      1592.587 5        33.094
G02  25450014.300 5 133740727.65805       428.137 5        32.125    25450011.802 1 104213519.91801       333.558 1         5.563
G10  23577524.671 4                       904.836 4        29.406                                                                    23577516.490 3                       704.938 3        21.688
G12  22154350.153 7 116421905.80007      5008.122 7        43.500    22154348.195 6  90718370.28406      3902.423 6        38.969    22154349.197 6  90718383.28706      3902.703 6        38.000
G13  24264753.156 6 127512144.06606     -2136.330 6        38.375    24264757.100 3  99360128.17603     -1664.656 3        18.531
G14  24658170.869 5 129579570.87905     -1713.881 5        32.188    24658174.511 1 100971112.14301     -1335.547 1         6.500    24658174.538 4                     -1335.105 4        28.688
G15  22734084.065 6 119468392.65006     -1803.496 6        37.313    22734086.564 4  93092278.92004     -1405.321 4        26.344    22734087.818 5  93092243.92605     -1404.744 5        35.125
G17  22318197.666 6 117282938.35306       434.886 6        40.125    22318201.781 5  91389292.50605       338.866 5        30.906    22318200.697 6  91389298.50506       338.961 6        36.438
G19  21452112.013 7 112731612.37407      2798.593 7        43.281    21452110.129 4  87842806.39404      2180.728 4        28.875
G22  23180766.072 5                     -1177.764 5        30.688
G23  24112937.592 3                     -1005.120 3        19.281                                                                    24112924.058 5  98738390.73805      -780.757 5        34.375
G24  20011930.492 8 105163397.89708      1715.313 8        48.563    20011933.038 8  81945507.67608      1336.608 8        53.406    20011933.329 8  81945507.67508      1336.578 8        48.688
G32  24624551.195 4 129402909.19504      5122.000 4        29.938                                                                    24624553.004 3                      3991.536 3        22.781
> 2024 02 29 08 20 13.0000000  0 13
G01                                                                                                                                  23942731.593 5  98041480.02505      1592.505 5        33.156
G02  25449933.582 5 133740299.96805       427.588 5        33.750    25449930.427 1 104213186.64501       333.183 1         5.000
G10  23577350.220 4                       904.675 4        27.313                                                                    23577342.879 3                       706.744 3        21.781
G12  22153397.117 7 116416897.77007      5007.971 7        44.063    22153395.162 6  90714467.92806      3902.316 6        38.500    22153395.968 6  90714480.96106      3902.220 6        37.719
G13  24265159.872 6 127514280.24406     -2135.790 6        40.000    24265163.548 3  99361792.72203     -1664.246 3        18.031
G14  24658496.614 5 129581284.11605     -1712.407 5        31.125    24658500.577 1 100972447.14201     -1334.336 1         7.375    24658500.774 4                     -1334.593 4        28.656
G15  22734426.844 6 119470195.83906     -1803.008 6        37.844    22734429.743 4  93093683.99504     -1404.942 4        26.406    22734430.695 5  93093649.07105     -1405.223 5        32.250
G17  22318114.881 6 117282503.62006       435.038 6        39.438    22318119.038 5  91388953.74705       338.994 5        30.813    22318117.915 6  91388959.81506       338.620 6        37.719
G19  21451579.604 7 112728814.12607      2798.229 7        42.906    21451577.684 4  87840625.94204      2180.434 4        28.844
G22  23180990.011 4                     -1177.355 4        29.188
G23  24113126.254 3                     -1002.625 3        23.063                                                                    24113114.816 5  98739171.53705      -780.733 5        34.563
G24  20011604.226 8 105161682.96508      1714.763 8        48.906    20011606.690 8  81944171.36408      1336.189 8        53.438    20011606.999 8  81944171.35808      1336.076 8        48.844
G32  24623576.140 5 129397787.35605      5121.867 5        32.094                                                                    24623578.565 4                      3991.115 4        26.188
> 2024 02 29 08 20 14.0000000  0 13
G01                                                                                                                                  23942342.917 5  98039887.97005      1592.426 5        33.250
G02  25449852.674 5 133739872.74205       427.735 5        33.281    25449849.165 1 104212853.73701       333.329 1         5.688
G10                                                                                                                                  23577174.089 4                       704.200 4        26.250
G12  22152444.159 7 116411889.90707      5008.361 7        44.406    22152442.125 6  90710565.70006      3902.619 6        38.438    22152443.133 6  90710578.72106      3902.519 6        38.844
G13  24265566.675 6 127516416.38006     -2135.520 6        40.250    24265569.979 3  99363457.24403     -1664.046 3        18.031
G14  24658822.832 4 129582997.25004     -1712.697 4        29.688    24658826.505 1 100973782.05501     -1334.606 1         6.625    24658827.091 4                     -1335.017 4        29.313
G15  22734770.119 6 119471999.16806     -1802.620 6        37.188    22734772.931 4  93095089.19504     -1404.648 4        25.969    22734773.278 5  93095054.19905     -1404.793 5        32.719
G17  22318032.110 6 117282069.35906       434.680 6        39.219    22318036.389 5  91388615.36405       338.715 5        30.781    22318035.525 6  91388621.38006       339.043 6        38.344
G19  21451047.251 7 112726016.40007      2797.938 7        42.406    21451045.346 4  87838445.89404      2180.208 4        28.750
G22  23181213.405 4                     -1178.178 4        29.531
G23  24113317.005 3                      -998.415 3        21.563                                                                    24113304.976 5  98739952.55305      -780.474 5        34.781
G24  20011277.970 8 105159968.44008      1714.881 8        48.656    20011280.422 8  81942835.36808      1336.275 8        53.375    20011280.728 8  81942835.35908      1336.264 8        49.094
G32  24622601.590 5 129392665.82905      5122.113 5        33.063                                                                    24622605.469 4                      3991.003 4        26.031
> 2024 02 29 08 20 15.0000000  0 13
G01                                                                                                                                  23941954.610 5  98038296.34005      1591.652 5        33.438
G02  25449770.899 5 133739445.79605       426.708 5        33.875    25449767.933 1 104212521.07601       332.428 1         5.563
G10  23577004.456 4                       902.874 4        27.125                                                                    23577003.984 4                       702.923 4        25.344
G12  22151491.130 7 116406882.28807      5008.031 7        44.719    22151489.191 6  90706663.65506      3902.375 6        38.594    22151490.364 6  90706676.64806      3902.264 6        38.094
